{
"type": "FeatureCollection",
"name": "Waypoints",
"crs": { "type": "name", "properties": { "name": "urn:ogc:def:crs:OGC:1.3:CRS84" } },
"features": [
{ "type": "Feature", "properties": { "Name": "Abbortjern, Gjøvik", "description": null, "timestamp": "2017\/02\/05 16:19:47+00" }, "geometry": { "type": "Point", "coordinates": [ 10.323887, 60.915327 ] } },
{ "type": "Feature", "properties": { "Name": "Agia Anna, Naxos", "description": null, "timestamp": "2010\/08\/03 18:53:26+00" }, "geometry": { "type": "Point", "coordinates": [ 25.352571, 37.071543 ] } },
{ "type": "Feature", "properties": { "Name": "Agios Giorgios, Naxos", "description": null, "timestamp": "2010\/08\/03 18:57:36+00" }, "geometry": { "type": "Point", "coordinates": [ 25.365988, 37.087428 ] } },
{ "type": "Feature", "properties": { "Name": "Agios Prokopios, Naxos", "description": null, "timestamp": "2010\/08\/03 18:49:05+00" }, "geometry": { "type": "Point", "coordinates": [ 25.348654, 37.074492 ] } },
{ "type": "Feature", "properties": { "Name": "Agnesodden", "description": null, "timestamp": "2013\/02\/23 09:24:23+00" }, "geometry": { "type": "Point", "coordinates": [ 10.0373, 59.008822 ] } },
{ "type": "Feature", "properties": { "Name": "Aker brygge", "description": "http:\/\/www.oslofjorden.com\/gjestehavn_marina\/aker_brygge_gjestehavn_oslo.html", "timestamp": "2015\/05\/09 21:27:07+00" }, "geometry": { "type": "Point", "coordinates": [ 10.725264, 59.908657 ] } },
{ "type": "Feature", "properties": { "Name": "Akershus slott", "description": null, "timestamp": "2011\/07\/09 23:53:00+00" }, "geometry": { "type": "Point", "coordinates": [ 10.737187, 59.907641 ] } },
{ "type": "Feature", "properties": { "Name": "Akersøya", "description": null, "timestamp": "2015\/05\/09 19:21:45+00" }, "geometry": { "type": "Point", "coordinates": [ 10.888304, 59.050783 ] } },
{ "type": "Feature", "properties": { "Name": "Akerøy fort, Festningsholmen", "description": null, "timestamp": "2011\/07\/09 23:46:16+00" }, "geometry": { "type": "Point", "coordinates": [ 10.895267, 59.0503 ] } },
{ "type": "Feature", "properties": { "Name": "Akkerhaugen Båthavn, Nordsjø", "description": null, "timestamp": "2016\/07\/25 20:33:12+00" }, "geometry": { "type": "Point", "coordinates": [ 9.254005, 59.39208 ] } },
{ "type": "Feature", "properties": { "Name": "Alby", "description": null, "timestamp": "2013\/04\/28 08:13:08+00" }, "geometry": { "type": "Point", "coordinates": [ 10.609379, 59.424229 ] } },
{ "type": "Feature", "properties": { "Name": "Albybukta, Jeløy", "description": "http:\/\/www.oslofjorden.com\/badesteder\/ostfold\/albybukta_badeplass_moss.html", "timestamp": "2010\/08\/06 23:23:22+00" }, "geometry": { "type": "Point", "coordinates": [ 10.613974, 59.422074 ] } },
{ "type": "Feature", "properties": { "Name": "Alværn brygge", "description": null, "timestamp": "2008\/09\/07 18:33:28+00" }, "geometry": { "type": "Point", "coordinates": [ 10.618015, 59.818422 ] } },
{ "type": "Feature", "properties": { "Name": "Alværn friområde, Nesodden", "description": "http:\/\/www.oslofjorden.com\/badesteder\/akershus\/alvaern_badeplass_nesodden.html", "timestamp": "2009\/05\/08 20:59:20+00" }, "geometry": { "type": "Point", "coordinates": [ 10.620843, 59.821135 ] } },
{ "type": "Feature", "properties": { "Name": "Amundbukta", "description": null, "timestamp": "2017\/02\/05 22:08:03+00" }, "geometry": { "type": "Point", "coordinates": [ 10.862185, 59.361984 ] } },
{ "type": "Feature", "properties": { "Name": "Andedammen, Siktesøya", "description": null, "timestamp": "2015\/06\/30 19:20:09+00" }, "geometry": { "type": "Point", "coordinates": [ 9.768157, 59.020081 ] } },
{ "type": "Feature", "properties": { "Name": "Andersenslippen, Fredrikstad", "description": "http:\/\/www.oslofjorden.com\/badesteder\/ostfold\/andersenslippen_badeplass_fredrikstad.html", "timestamp": "2015\/03\/15 21:30:31+00" }, "geometry": { "type": "Point", "coordinates": [ 10.801938, 59.209513 ] } },
{ "type": "Feature", "properties": { "Name": "Anvikstranda", "description": "http:\/\/www.oslofjorden.com\/badesteder\/vestfold\/anvikstranda_badeplass_larvik.html", "timestamp": "2015\/05\/16 18:35:38+00" }, "geometry": { "type": "Point", "coordinates": [ 9.965818, 58.977685 ] } },
{ "type": "Feature", "properties": { "Name": "Apotekerstranda, Hurum", "description": "http:\/\/www.oslofjorden.com\/badesteder\/buskerud\/apotekerstranda_badeplass_hurum.html", "timestamp": "2012\/10\/24 21:35:13+00" }, "geometry": { "type": "Point", "coordinates": [ 10.553496, 59.540102 ] } },
{ "type": "Feature", "properties": { "Name": "Archimedesskruen Hvaler", "description": null, "timestamp": "2011\/07\/10 00:00:43+00" }, "geometry": { "type": "Point", "coordinates": [ 11.011337, 59.039008 ] } },
{ "type": "Feature", "properties": { "Name": "Arendal gjestehavn", "description": null, "timestamp": "2016\/07\/25 17:46:46+00" }, "geometry": { "type": "Point", "coordinates": [ 8.764129, 58.457093 ] } },
{ "type": "Feature", "properties": { "Name": "Arholmen, Kosterhavet", "description": null, "timestamp": "2014\/12\/31 14:11:11+00" }, "geometry": { "type": "Point", "coordinates": [ 11.001233, 58.869879 ] } },
{ "type": "Feature", "properties": { "Name": "Arås båtforening", "description": null, "timestamp": "2014\/06\/24 21:51:23+00" }, "geometry": { "type": "Point", "coordinates": [ 10.454875, 59.197906 ] } },
{ "type": "Feature", "properties": { "Name": "Asdøltjern", "description": null, "timestamp": "2011\/07\/14 22:45:37+00" }, "geometry": { "type": "Point", "coordinates": [ 10.328845, 59.87183 ] } },
{ "type": "Feature", "properties": { "Name": "Asker Seilforening", "description": null, "timestamp": "2007\/06\/29 23:02:24+00" }, "geometry": { "type": "Point", "coordinates": [ 10.48327, 59.818673 ] } },
{ "type": "Feature", "properties": { "Name": "Asnes", "description": null, "timestamp": "2009\/08\/16 20:28:20+00" }, "geometry": { "type": "Point", "coordinates": [ 10.24317, 59.097587 ] } },
{ "type": "Feature", "properties": { "Name": "Asnes rampe", "description": null, "timestamp": "2009\/07\/18 09:58:52+00" }, "geometry": { "type": "Point", "coordinates": [ 10.238617, 59.101231 ] } },
{ "type": "Feature", "properties": { "Name": "Asperøya, Flekkerøya", "description": null, "timestamp": "2010\/06\/13 08:30:38+00" }, "geometry": { "type": "Point", "coordinates": [ 8.029417, 58.081812 ] } },
{ "type": "Feature", "properties": { "Name": "Auglandbukta", "description": null, "timestamp": "2009\/03\/31 19:39:03+00" }, "geometry": { "type": "Point", "coordinates": [ 7.963092, 58.121066 ] } },
{ "type": "Feature", "properties": { "Name": "Austvatn båtforening, Storsjøen", "description": null, "timestamp": "2010\/03\/14 18:54:32+00" }, "geometry": { "type": "Point", "coordinates": [ 11.687779, 60.375452 ] } },
{ "type": "Feature", "properties": { "Name": "Autsvatn badeplass", "description": null, "timestamp": "2010\/03\/14 18:58:02+00" }, "geometry": { "type": "Point", "coordinates": [ 11.685757, 60.375443 ] } },
{ "type": "Feature", "properties": { "Name": "Axelsson Marina", "description": null, "timestamp": "2009\/04\/30 22:44:58+00" }, "geometry": { "type": "Point", "coordinates": [ 11.17179, 58.929755 ] } },
{ "type": "Feature", "properties": { "Name": "bad, Fjällbacka", "description": null, "timestamp": "2014\/09\/15 20:51:05+00" }, "geometry": { "type": "Point", "coordinates": [ 11.278377, 58.591959 ] } },
{ "type": "Feature", "properties": { "Name": "Badedammen, Grorud", "description": "http:\/\/www.oslofjorden.com\/badesteder\/oslo\/badedammen_grorud.html", "timestamp": "2010\/05\/06 22:42:14+00" }, "geometry": { "type": "Point", "coordinates": [ 10.88179, 59.971871 ] } },
{ "type": "Feature", "properties": { "Name": "Badedammen, Lillehammer", "description": null, "timestamp": "2017\/05\/13 20:29:34+00" }, "geometry": { "type": "Point", "coordinates": [ 10.475875, 61.118659 ] } },
{ "type": "Feature", "properties": { "Name": "Badedammen, Stavanger", "description": null, "timestamp": "2016\/05\/07 19:00:30+00" }, "geometry": { "type": "Point", "coordinates": [ 5.748413, 58.972159 ] } },
{ "type": "Feature", "properties": { "Name": "Badeparken Drøbak", "description": "http:\/\/www.oslofjorden.com\/badesteder\/akershus\/badeparken_droebak.html", "timestamp": "2009\/05\/09 06:59:18+00" }, "geometry": { "type": "Point", "coordinates": [ 10.62514, 59.66519 ] } },
{ "type": "Feature", "properties": { "Name": "Badeparken,  Åsgårdstrand", "description": "http:\/\/www.oslofjorden.com\/badesteder\/vestfold\/badeparken_aasgaardstrand.html", "timestamp": "2009\/05\/25 22:52:57+00" }, "geometry": { "type": "Point", "coordinates": [ 10.474098, 59.34656 ] } },
{ "type": "Feature", "properties": { "Name": "badeplass Jeløya", "description": "Navn ??", "timestamp": "2017\/05\/01 20:42:10+00" }, "geometry": { "type": "Point", "coordinates": [ 10.652587, 59.495376 ] } },
{ "type": "Feature", "properties": { "Name": "Badeplass, Justøya", "description": "sjekk", "timestamp": "2009\/05\/22 21:52:22+00" }, "geometry": { "type": "Point", "coordinates": [ 8.371674, 58.226128 ] } },
{ "type": "Feature", "properties": { "Name": "Badholmen, Fjällbacka", "description": null, "timestamp": "2014\/09\/15 20:42:55+00" }, "geometry": { "type": "Point", "coordinates": [ 11.276525, 58.59682 ] } },
{ "type": "Feature", "properties": { "Name": "Bagatell Camping", "description": null, "timestamp": "2010\/05\/09 09:02:18+00" }, "geometry": { "type": "Point", "coordinates": [ 8.677072, 58.371286 ] } },
{ "type": "Feature", "properties": { "Name": "Bakke camping", "description": null, "timestamp": "2012\/10\/05 08:03:58+00" }, "geometry": { "type": "Point", "coordinates": [ 11.449225, 59.013429 ] } },
{ "type": "Feature", "properties": { "Name": "Bakkestranda, Hurum", "description": "http:\/\/www.oslofjorden.com\/badesteder\/buskerud\/bakkestranda_badeplass_hurum.html", "timestamp": "2014\/05\/11 19:14:20+00" }, "geometry": { "type": "Point", "coordinates": [ 10.540507, 59.535909 ] } },
{ "type": "Feature", "properties": { "Name": "Bakkestranda, Skien", "description": null, "timestamp": "2012\/11\/06 19:09:42+00" }, "geometry": { "type": "Point", "coordinates": [ 9.599855, 59.199905 ] } },
{ "type": "Feature", "properties": { "Name": "Barbu, Arendal", "description": "Må kontrolleres", "timestamp": "2009\/03\/31 20:31:25+00" }, "geometry": { "type": "Point", "coordinates": [ 8.77695, 58.461983 ] } },
{ "type": "Feature", "properties": { "Name": "Barkevik parkering", "description": null, "timestamp": "2015\/05\/16 13:49:19+00" }, "geometry": { "type": "Point", "coordinates": [ 9.857552, 59.007572 ] } },
{ "type": "Feature", "properties": { "Name": "Barkevika", "description": "http:\/\/www.oslofjorden.com\/badesteder\/vestfold\/barkevika_badeplass_larvik.html", "timestamp": "2010\/05\/09 23:27:38+00" }, "geometry": { "type": "Point", "coordinates": [ 9.851711, 59.010533 ] } },
{ "type": "Feature", "properties": { "Name": "Basteviken, Nordkoster", "description": null, "timestamp": "2009\/06\/02 21:18:08+00" }, "geometry": { "type": "Point", "coordinates": [ 11.000797, 58.897299 ] } },
{ "type": "Feature", "properties": { "Name": "Bastøy Fyr", "description": null, "timestamp": "2010\/03\/14 22:51:56+00" }, "geometry": { "type": "Point", "coordinates": [ 10.535545, 59.386253 ] } },
{ "type": "Feature", "properties": { "Name": "Bastøybukta", "description": "http:\/\/www.oslofjorden.com\/badesteder\/vestfold\/bastoeybukta_badeplass_horten.html", "timestamp": "2009\/04\/30 21:59:55+00" }, "geometry": { "type": "Point", "coordinates": [ 10.525226, 59.386243 ] } },
{ "type": "Feature", "properties": { "Name": "Batteristranda, Langestrand", "description": "http:\/\/www.oslofjorden.com\/badesteder\/vestfold\/langestrand_larvik.html", "timestamp": "2009\/07\/22 10:45:01+00" }, "geometry": { "type": "Point", "coordinates": [ 10.017671, 59.048693 ] } },
{ "type": "Feature", "properties": { "Name": "Batteritangen, Karljohansvern", "description": null, "timestamp": "2009\/06\/22 20:55:08+00" }, "geometry": { "type": "Point", "coordinates": [ 10.49722, 59.417287 ] } },
{ "type": "Feature", "properties": { "Name": "Bausje", "description": null, "timestamp": "2010\/04\/25 11:55:10+00" }, "geometry": { "type": "Point", "coordinates": [ 6.609922, 58.090042 ] } },
{ "type": "Feature", "properties": { "Name": "Bekkelaget båtforening", "description": null, "timestamp": "2007\/06\/29 20:25:34+00" }, "geometry": { "type": "Point", "coordinates": [ 10.77549, 59.877155 ] } },
{ "type": "Feature", "properties": { "Name": "Bekkensten", "description": "http:\/\/www.oslofjorden.com\/badesteder\/akershus\/bekkensten_badeplass_svartskog.html", "timestamp": "2009\/06\/27 07:19:41+00" }, "geometry": { "type": "Point", "coordinates": [ 10.733283, 59.791806 ] } },
{ "type": "Feature", "properties": { "Name": "Bekkestranda, Sande", "description": "http:\/\/www.oslofjorden.com\/badesteder\/vestfold\/bekkestranda_badeplass_sande.html", "timestamp": "2009\/08\/03 13:32:05+00" }, "geometry": { "type": "Point", "coordinates": [ 10.287617, 59.55035 ] } },
{ "type": "Feature", "properties": { "Name": "Bekkevika", "description": "http:\/\/www.oslofjorden.com\/badesteder\/vestfold\/bekkevika_tjoeme.html", "timestamp": "2009\/05\/09 07:57:18+00" }, "geometry": { "type": "Point", "coordinates": [ 10.382026, 59.118649 ] } },
{ "type": "Feature", "properties": { "Name": "Bekkevika, Eydehavn", "description": null, "timestamp": "2009\/09\/19 23:38:22+00" }, "geometry": { "type": "Point", "coordinates": [ 8.869432, 58.49789 ] } },
{ "type": "Feature", "properties": { "Name": "Berganodden", "description": null, "timestamp": "2012\/06\/30 20:12:19+00" }, "geometry": { "type": "Point", "coordinates": [ 10.291826, 59.089423 ] } },
{ "type": "Feature", "properties": { "Name": "Berger småbåthavn, Svelvik", "description": null, "timestamp": "2013\/08\/11 08:59:33+00" }, "geometry": { "type": "Point", "coordinates": [ 10.385251, 59.542787 ] } },
{ "type": "Feature", "properties": { "Name": "Bergerbukta parkering", "description": null, "timestamp": "2013\/08\/10 08:12:49+00" }, "geometry": { "type": "Point", "coordinates": [ 10.382433, 59.540296 ] } },
{ "type": "Feature", "properties": { "Name": "Bergerbukta, Svelvik", "description": "http:\/\/www.oslofjorden.com\/badesteder\/vestfold\/bergerbukta_badeplass_svelvik.html", "timestamp": "2013\/08\/11 08:59:14+00" }, "geometry": { "type": "Point", "coordinates": [ 10.383074, 59.541224 ] } },
{ "type": "Feature", "properties": { "Name": "Bergestø", "description": null, "timestamp": "2010\/08\/09 06:11:17+00" }, "geometry": { "type": "Point", "coordinates": [ 8.384883, 58.251817 ] } },
{ "type": "Feature", "properties": { "Name": "Bergneset", "description": null, "timestamp": "2010\/07\/07 21:24:03+00" }, "geometry": { "type": "Point", "coordinates": [ 9.376139, 58.885468 ] } },
{ "type": "Feature", "properties": { "Name": "Bergsmarkstranda", "description": null, "timestamp": "2013\/06\/22 09:29:40+00" }, "geometry": { "type": "Point", "coordinates": [ 11.185252, 59.118909 ] } },
{ "type": "Feature", "properties": { "Name": "Bertesbukta", "description": null, "timestamp": "2009\/03\/31 19:44:36+00" }, "geometry": { "type": "Point", "coordinates": [ 8.027288, 58.14638 ] } },
{ "type": "Feature", "properties": { "Name": "Bertesnes", "description": null, "timestamp": "2015\/06\/09 21:27:55+00" }, "geometry": { "type": "Point", "coordinates": [ 8.944552, 58.620653 ] } },
{ "type": "Feature", "properties": { "Name": "Bestemorstranda", "description": "http:\/\/www.oslofjorden.com\/badesteder\/akershus\/bestemorstranda_badeplass_bunnefjorden.html", "timestamp": "2009\/06\/07 17:50:13+00" }, "geometry": { "type": "Point", "coordinates": [ 10.75922, 59.827037 ] } },
{ "type": "Feature", "properties": { "Name": "Bestemorstranda, Mellom-Nes", "description": null, "timestamp": "2013\/05\/09 06:18:42+00" }, "geometry": { "type": "Point", "coordinates": [ 10.50853, 59.865092 ] } },
{ "type": "Feature", "properties": { "Name": "Beston, Røyken", "description": "http:\/\/www.oslofjorden.com\/badesteder\/buskerud\/beston.html", "timestamp": "2014\/03\/16 20:51:26+00" }, "geometry": { "type": "Point", "coordinates": [ 10.522896, 59.688425 ] } },
{ "type": "Feature", "properties": { "Name": "Bestumkilen", "description": null, "timestamp": "2007\/06\/29 23:00:17+00" }, "geometry": { "type": "Point", "coordinates": [ 10.674974, 59.917894 ] } },
{ "type": "Feature", "properties": { "Name": "Bestumkilen parkering", "description": null, "timestamp": "2012\/12\/01 12:05:44+00" }, "geometry": { "type": "Point", "coordinates": [ 10.67739, 59.918974 ] } },
{ "type": "Feature", "properties": { "Name": "Bevø", "description": null, "timestamp": "2009\/08\/02 00:48:24+00" }, "geometry": { "type": "Point", "coordinates": [ 11.036797, 59.138555 ] } },
{ "type": "Feature", "properties": { "Name": "Bile", "description": null, "timestamp": "2017\/05\/01 20:59:13+00" }, "geometry": { "type": "Point", "coordinates": [ 10.629295, 59.507898 ] } },
{ "type": "Feature", "properties": { "Name": "Biri", "description": null, "timestamp": "2009\/09\/13 21:46:58+00" }, "geometry": { "type": "Point", "coordinates": [ 10.628314, 60.954273 ] } },
{ "type": "Feature", "properties": { "Name": "Bjerkøya", "description": "Bjerkøyveien", "timestamp": "2007\/06\/29 21:41:42+00" }, "geometry": { "type": "Point", "coordinates": [ 10.340792, 59.531669 ] } },
{ "type": "Feature", "properties": { "Name": "Bjerkøya, parkering", "description": null, "timestamp": "2012\/12\/01 09:41:14+00" }, "geometry": { "type": "Point", "coordinates": [ 10.341446, 59.53353 ] } },
{ "type": "Feature", "properties": { "Name": "Bjerkøya2", "description": "Bjerkøyveien", "timestamp": "2007\/06\/29 21:42:10+00" }, "geometry": { "type": "Point", "coordinates": [ 10.340542, 59.52919 ] } },
{ "type": "Feature", "properties": { "Name": "Björnsängen, Nordkoster", "description": null, "timestamp": "2009\/06\/03 14:21:09+00" }, "geometry": { "type": "Point", "coordinates": [ 10.989869, 58.890946 ] } },
{ "type": "Feature", "properties": { "Name": "Bjønnes, Larvik", "description": "http:\/\/www.oslofjorden.com\/badesteder\/vestfold\/bjoennes_badeplass_larvik.html", "timestamp": "2009\/07\/22 10:56:48+00" }, "geometry": { "type": "Point", "coordinates": [ 10.122914, 59.036322 ] } },
{ "type": "Feature", "properties": { "Name": "Bjønnesveien", "description": null, "timestamp": "2010\/08\/05 16:59:31+00" }, "geometry": { "type": "Point", "coordinates": [ 9.775301, 59.051019 ] } },
{ "type": "Feature", "properties": { "Name": "Bjørnhuebukta, Håøya", "description": "http:\/\/www.oslofjorden.com\/uthavner\/akershus\/bjoernehuebukta_haaoeya_uthavn_frogn.html", "timestamp": "2010\/08\/08 22:16:55+00" }, "geometry": { "type": "Point", "coordinates": [ 10.554137, 59.715398 ] } },
{ "type": "Feature", "properties": { "Name": "Blakstad", "description": "http:\/\/www.oslofjorden.com\/badesteder\/akershus\/blakstad_badeplass.html", "timestamp": "2009\/06\/25 22:26:17+00" }, "geometry": { "type": "Point", "coordinates": [ 10.475954, 59.820402 ] } },
{ "type": "Feature", "properties": { "Name": "Blektjern, Drammen", "description": null, "timestamp": "2014\/06\/17 19:12:50+00" }, "geometry": { "type": "Point", "coordinates": [ 10.189261, 59.724813 ] } },
{ "type": "Feature", "properties": { "Name": "Blindsand, Svelvik", "description": "http:\/\/www.oslofjorden.com\/badesteder\/vestfold\/blindsand_badeplass_svelvik.html", "timestamp": "2013\/08\/11 08:58:39+00" }, "geometry": { "type": "Point", "coordinates": [ 10.385039, 59.538327 ] } },
{ "type": "Feature", "properties": { "Name": "Bliva, Skien", "description": null, "timestamp": "2012\/11\/06 19:15:19+00" }, "geometry": { "type": "Point", "coordinates": [ 9.527102, 59.281675 ] } },
{ "type": "Feature", "properties": { "Name": "Blokkebukta camping", "description": "http:\/\/www.oslofjorden.com\/badesteder\/vestfold\/blokkebukta_badeplass_larvik.html", "timestamp": "2015\/05\/16 14:08:46+00" }, "geometry": { "type": "Point", "coordinates": [ 9.853281, 58.998165 ] } },
{ "type": "Feature", "properties": { "Name": "Blommenholm Båtforening", "description": null, "timestamp": "2007\/06\/21 19:21:27+00" }, "geometry": { "type": "Point", "coordinates": [ 10.545516, 59.891224 ] } },
{ "type": "Feature", "properties": { "Name": "Blylaget", "description": null, "timestamp": "2014\/04\/17 17:39:53+00" }, "geometry": { "type": "Point", "coordinates": [ 10.709762, 59.779165 ] } },
{ "type": "Feature", "properties": { "Name": "Blylaget friområde", "description": null, "timestamp": "2014\/04\/17 17:37:29+00" }, "geometry": { "type": "Point", "coordinates": [ 10.709729, 59.780351 ] } },
{ "type": "Feature", "properties": { "Name": "Blåhella Kystsamling", "description": null, "timestamp": "2013\/02\/18 22:39:59+00" }, "geometry": { "type": "Point", "coordinates": [ 10.52064, 59.71721 ] } },
{ "type": "Feature", "properties": { "Name": "Blåsopp", "description": null, "timestamp": "2014\/08\/13 20:34:10+00" }, "geometry": { "type": "Point", "coordinates": [ 10.813594, 59.191246 ] } },
{ "type": "Feature", "properties": { "Name": "Blåsopp, Sydkoster", "description": null, "timestamp": "2009\/06\/03 14:26:44+00" }, "geometry": { "type": "Point", "coordinates": [ 11.055083, 58.867611 ] } },
{ "type": "Feature", "properties": { "Name": "Bogen, Sandefjord", "description": "http:\/\/www.oslofjorden.com\/badesteder\/vestfold\/bogen_badeplass_stokke.html", "timestamp": "2014\/09\/08 21:48:23+00" }, "geometry": { "type": "Point", "coordinates": [ 10.33022, 59.179922 ] } },
{ "type": "Feature", "properties": { "Name": "Bogstad gård", "description": "http:\/\/www.bogstad.no", "timestamp": "2015\/03\/08 08:02:59+00" }, "geometry": { "type": "Point", "coordinates": [ 10.626093, 59.971638 ] } },
{ "type": "Feature", "properties": { "Name": "Bogstadvannet", "description": "http:\/\/www.oslofjorden.com\/badesteder\/oslo\/bogstadvannet_badeplass_oslo.html", "timestamp": "2015\/03\/08 08:10:17+00" }, "geometry": { "type": "Point", "coordinates": [ 10.637951, 59.969532 ] } },
{ "type": "Feature", "properties": { "Name": "Bomansvik, Nesodden", "description": null, "timestamp": "2010\/04\/08 19:44:54+00" }, "geometry": { "type": "Point", "coordinates": [ 10.704744, 59.793986 ] } },
{ "type": "Feature", "properties": { "Name": "Bonden, Nesodden", "description": null, "timestamp": "2015\/11\/28 10:16:27+00" }, "geometry": { "type": "Point", "coordinates": [ 10.633312, 59.832289 ] } },
{ "type": "Feature", "properties": { "Name": "Bonn parkering", "description": null, "timestamp": "2012\/10\/27 10:24:05+00" }, "geometry": { "type": "Point", "coordinates": [ 10.720732, 59.719454 ] } },
{ "type": "Feature", "properties": { "Name": "Bonvika, Stokkøya", "description": null, "timestamp": "2015\/06\/30 19:08:27+00" }, "geometry": { "type": "Point", "coordinates": [ 9.809954, 58.997183 ] } },
{ "type": "Feature", "properties": { "Name": "Borestranden, Sola", "description": null, "timestamp": "2016\/05\/07 19:24:09+00" }, "geometry": { "type": "Point", "coordinates": [ 5.548357, 58.809533 ] } },
{ "type": "Feature", "properties": { "Name": "Borre Familiecamping", "description": null, "timestamp": "2011\/04\/21 22:32:57+00" }, "geometry": { "type": "Point", "coordinates": [ 10.46599, 59.378002 ] } },
{ "type": "Feature", "properties": { "Name": "Borrestranda", "description": "http:\/\/www.oslofjorden.com\/badesteder\/vestfold\/borrestranda.html", "timestamp": "2009\/08\/04 11:51:26+00" }, "geometry": { "type": "Point", "coordinates": [ 10.467855, 59.377561 ] } },
{ "type": "Feature", "properties": { "Name": "Borøya", "description": null, "timestamp": "2009\/06\/24 23:28:29+00" }, "geometry": { "type": "Point", "coordinates": [ 10.549131, 59.877143 ] } },
{ "type": "Feature", "properties": { "Name": "Botnerbaugen", "description": "http:\/\/www.oslofjorden.com\/badesteder\/ostfold\/botnerbaugen.html", "timestamp": "2009\/06\/07 21:43:05+00" }, "geometry": { "type": "Point", "coordinates": [ 10.661831, 59.346509 ] } },
{ "type": "Feature", "properties": { "Name": "Bragernes strand, Drammen", "description": "http:\/\/www.oslofjorden.com\/badesteder\/buskerud\/bragernes_strand_badeplass_drammen.html", "timestamp": "2009\/07\/18 10:22:51+00" }, "geometry": { "type": "Point", "coordinates": [ 10.216527, 59.739912 ] } },
{ "type": "Feature", "properties": { "Name": "Brattestø", "description": null, "timestamp": "2017\/06\/11 17:18:22+00" }, "geometry": { "type": "Point", "coordinates": [ 10.917306, 59.055908 ] } },
{ "type": "Feature", "properties": { "Name": "Brattesø gjestehavn", "description": "http:\/\/www.oslofjorden.com\/kyststi\/oestfold\/kyststi_asmaloey_hvaler.html", "timestamp": "2017\/06\/11 17:18:30+00" }, "geometry": { "type": "Point", "coordinates": [ 10.921518, 59.056625 ] } },
{ "type": "Feature", "properties": { "Name": "Brattholmen", "description": "http:\/\/www.oslofjorden.com\/gjestehavn_marina\/brattholmen_gjestehavn_uthavn_hvaler_oestfold.html", "timestamp": "2014\/08\/02 10:19:30+00" }, "geometry": { "type": "Point", "coordinates": [ 11.115497, 59.044436 ] } },
{ "type": "Feature", "properties": { "Name": "Bredebukta, Jeløy", "description": "http:\/\/www.oslofjorden.com\/badesteder\/ostfold\/bredebukta_badeplass_moss.html", "timestamp": "2010\/08\/06 23:25:10+00" }, "geometry": { "type": "Point", "coordinates": [ 10.599904, 59.41831 ] } },
{ "type": "Feature", "properties": { "Name": "Breiviga, Store langøya", "description": null, "timestamp": "2009\/06\/05 13:36:12+00" }, "geometry": { "type": "Point", "coordinates": [ 7.929227, 58.07874 ] } },
{ "type": "Feature", "properties": { "Name": "Breivika, Stavanger", "description": null, "timestamp": "2016\/05\/19 19:26:23+00" }, "geometry": { "type": "Point", "coordinates": [ 5.71579, 59.004001 ] } },
{ "type": "Feature", "properties": { "Name": "Breivoldveien parkering", "description": null, "timestamp": "2013\/07\/08 12:16:41+00" }, "geometry": { "type": "Point", "coordinates": [ 10.728836, 59.735584 ] } },
{ "type": "Feature", "properties": { "Name": "Breivoll, Ås", "description": "http:\/\/www.oslofjorden.com\/badesteder\/akershus\/breivoll_badeplass_bunnefjorden.html", "timestamp": "2011\/08\/07 21:48:05+00" }, "geometry": { "type": "Point", "coordinates": [ 10.729524, 59.730917 ] } },
{ "type": "Feature", "properties": { "Name": "Brekkedammen, Frysja", "description": "http:\/\/www.oslofjorden.com\/badesteder\/oslo\/brekkedammen_badeplass_oslo.html", "timestamp": "2009\/09\/06 17:27:26+00" }, "geometry": { "type": "Point", "coordinates": [ 10.778432, 59.966692 ] } },
{ "type": "Feature", "properties": { "Name": "Brennerivika, Moelv", "description": null, "timestamp": "2009\/09\/13 21:52:02+00" }, "geometry": { "type": "Point", "coordinates": [ 10.69125, 60.922949 ] } },
{ "type": "Feature", "properties": { "Name": "Brevik Båtforening", "description": "kran og rampe", "timestamp": "2007\/08\/07 20:20:48+00" }, "geometry": { "type": "Point", "coordinates": [ 9.708434, 59.051183 ] } },
{ "type": "Feature", "properties": { "Name": "Brevik, Frogn", "description": "http:\/\/www.oslofjorden.com\/badesteder\/akershus\/breivik_badeplass_frogn.html", "timestamp": "2012\/10\/27 16:52:24+00" }, "geometry": { "type": "Point", "coordinates": [ 10.713895, 59.752301 ] } },
{ "type": "Feature", "properties": { "Name": "Brevik, Sydkoster", "description": null, "timestamp": "2014\/09\/15 19:37:45+00" }, "geometry": { "type": "Point", "coordinates": [ 11.026376, 58.871714 ] } },
{ "type": "Feature", "properties": { "Name": "Brevikbukta, Breivik", "description": "http:\/\/www.oslofjorden.com\/badesteder\/akershus\/breivikbukta_badeplass_vestby.html", "timestamp": "2012\/09\/15 17:52:16+00" }, "geometry": { "type": "Point", "coordinates": [ 10.682703, 59.509745 ] } },
{ "type": "Feature", "properties": { "Name": "Brevikstrand Camping", "description": null, "timestamp": "2010\/08\/23 17:49:57+00" }, "geometry": { "type": "Point", "coordinates": [ 9.649024, 58.97281 ] } },
{ "type": "Feature", "properties": { "Name": "Brevikstrand rampe", "description": null, "timestamp": "2010\/08\/25 19:51:26+00" }, "geometry": { "type": "Point", "coordinates": [ 9.654497, 58.974074 ] } },
{ "type": "Feature", "properties": { "Name": "Brumunddal", "description": null, "timestamp": "2009\/09\/13 21:58:06+00" }, "geometry": { "type": "Point", "coordinates": [ 10.928582, 60.878003 ] } },
{ "type": "Feature", "properties": { "Name": "Brunstad badeplass", "description": null, "timestamp": "2009\/08\/16 18:30:34+00" }, "geometry": { "type": "Point", "coordinates": [ 10.364793, 59.222845 ] } },
{ "type": "Feature", "properties": { "Name": "Bråstad, Gjøvik", "description": null, "timestamp": "2017\/02\/05 16:09:03+00" }, "geometry": { "type": "Point", "coordinates": [ 10.677501, 60.820393 ] } },
{ "type": "Feature", "properties": { "Name": "Bråtan, Holmsbu", "description": null, "timestamp": "2009\/08\/31 22:38:41+00" }, "geometry": { "type": "Point", "coordinates": [ 10.420837, 59.556205 ] } },
{ "type": "Feature", "properties": { "Name": "Bråten, Nøkklevann", "description": "http:\/\/www.oslofjorden.com\/badesteder\/oslo\/noklevann_badeplass_oslo.html", "timestamp": "2010\/05\/09 20:30:53+00" }, "geometry": { "type": "Point", "coordinates": [ 10.862861, 59.875236 ] } },
{ "type": "Feature", "properties": { "Name": "Brænnebukta, Trondheim", "description": null, "timestamp": "2016\/04\/02 18:45:26+00" }, "geometry": { "type": "Point", "coordinates": [ 10.328583, 63.447833 ] } },
{ "type": "Feature", "properties": { "Name": "Brønnstadbukta", "description": null, "timestamp": "2009\/05\/26 17:03:30+00" }, "geometry": { "type": "Point", "coordinates": [ 9.71817, 59.077914 ] } },
{ "type": "Feature", "properties": { "Name": "Brønnstadbukta parkering", "description": null, "timestamp": "2010\/08\/05 17:02:50+00" }, "geometry": { "type": "Point", "coordinates": [ 9.723259, 59.077065 ] } },
{ "type": "Feature", "properties": { "Name": "Brønnøya Nordre brygge", "description": "Ferge", "timestamp": "2015\/03\/08 08:20:24+00" }, "geometry": { "type": "Point", "coordinates": [ 10.547776, 59.867034 ] } },
{ "type": "Feature", "properties": { "Name": "Brønnøya Søndre brygge", "description": null, "timestamp": "2015\/03\/08 08:12:33+00" }, "geometry": { "type": "Point", "coordinates": [ 10.538249, 59.851799 ] } },
{ "type": "Feature", "properties": { "Name": "Bud gjestehavn", "description": null, "timestamp": "2016\/05\/21 21:06:56+00" }, "geometry": { "type": "Point", "coordinates": [ 6.905666, 62.906683 ] } },
{ "type": "Feature", "properties": { "Name": "Buerøya", "description": null, "timestamp": "2015\/05\/09 19:15:01+00" }, "geometry": { "type": "Point", "coordinates": [ 10.256556, 59.08461 ] } },
{ "type": "Feature", "properties": { "Name": "Bugtestranda, Holmsbu", "description": "http:\/\/www.oslofjorden.com\/badesteder\/buskerud\/bugtestranda_holmsbu_badeplass_hurum.html", "timestamp": "2014\/04\/20 21:47:40+00" }, "geometry": { "type": "Point", "coordinates": [ 10.429513, 59.561666 ] } },
{ "type": "Feature", "properties": { "Name": "Building", "description": null, "timestamp": "2017\/02\/05 16:17:59+00" }, "geometry": { "type": "Point", "coordinates": [ 10.321655, 60.915627 ] } },
{ "type": "Feature", "properties": { "Name": "Bukta", "description": null, "timestamp": "2016\/10\/09 08:37:38+00" }, "geometry": { "type": "Point", "coordinates": [ 10.853745, 59.114808 ] } },
{ "type": "Feature", "properties": { "Name": "Burudvann", "description": "http:\/\/www.oslofjorden.com\/badesteder\/akershus\/burudvann_badeplass_bearum.html", "timestamp": "2012\/06\/03 07:40:41+00" }, "geometry": { "type": "Point", "coordinates": [ 10.509546, 59.969743 ] } },
{ "type": "Feature", "properties": { "Name": "Burudvann parkering", "description": null, "timestamp": "2012\/06\/03 07:38:53+00" }, "geometry": { "type": "Point", "coordinates": [ 10.507479, 59.964016 ] } },
{ "type": "Feature", "properties": { "Name": "Bustein Nord", "description": "http:\/\/www.oslofjorden.com\/uthavner\/vestfold\/bustein.html", "timestamp": "2009\/06\/22 21:00:38+00" }, "geometry": { "type": "Point", "coordinates": [ 10.480779, 59.107433 ] } },
{ "type": "Feature", "properties": { "Name": "Bustein Sør", "description": "http:\/\/www.oslofjorden.com\/uthavner\/vestfold\/bustein.html", "timestamp": "2009\/06\/22 21:04:29+00" }, "geometry": { "type": "Point", "coordinates": [ 10.483789, 59.102218 ] } },
{ "type": "Feature", "properties": { "Name": "Bustein Vestre", "description": "http:\/\/www.oslofjorden.com\/uthavner\/vestfold\/bustein.html", "timestamp": "2009\/06\/22 21:01:09+00" }, "geometry": { "type": "Point", "coordinates": [ 10.475186, 59.105681 ] } },
{ "type": "Feature", "properties": { "Name": "Buvika, Femunden", "description": null, "timestamp": "2010\/09\/12 18:59:53+00" }, "geometry": { "type": "Point", "coordinates": [ 11.712293, 62.124159 ] } },
{ "type": "Feature", "properties": { "Name": "Buvikstranda, Fredrikstad", "description": null, "timestamp": "2014\/08\/13 20:33:02+00" }, "geometry": { "type": "Point", "coordinates": [ 10.810415, 59.195381 ] } },
{ "type": "Feature", "properties": { "Name": "Bygdøy sjøbad", "description": "http:\/\/www.oslofjorden.com\/badesteder\/oslo\/bygdoey_sjoebad.html", "timestamp": "2009\/06\/09 21:23:33+00" }, "geometry": { "type": "Point", "coordinates": [ 10.666391, 59.911077 ] } },
{ "type": "Feature", "properties": { "Name": "Bygdøy Sjøbad Parkering", "description": null, "timestamp": "2010\/03\/14 23:01:26+00" }, "geometry": { "type": "Point", "coordinates": [ 10.666885, 59.911857 ] } },
{ "type": "Feature", "properties": { "Name": "Bygdøynes Parkering", "description": null, "timestamp": "2010\/05\/02 23:26:20+00" }, "geometry": { "type": "Point", "coordinates": [ 10.697521, 59.90311 ] } },
{ "type": "Feature", "properties": { "Name": "Bystranda, Grimstad", "description": null, "timestamp": "2010\/05\/08 22:49:36+00" }, "geometry": { "type": "Point", "coordinates": [ 8.594439, 58.334949 ] } },
{ "type": "Feature", "properties": { "Name": "Bystranda, Kristiansand", "description": null, "timestamp": "2010\/04\/25 21:03:23+00" }, "geometry": { "type": "Point", "coordinates": [ 8.006944, 58.146246 ] } },
{ "type": "Feature", "properties": { "Name": "Båly, Spangereid", "description": null, "timestamp": "2010\/03\/10 22:04:49+00" }, "geometry": { "type": "Point", "coordinates": [ 7.149825, 58.039699 ] } },
{ "type": "Feature", "properties": { "Name": "Båntjern", "description": "http:\/\/www.oslofjorden.com\/badesteder\/oslo\/baantjern_badeplass_oslo.html", "timestamp": "2011\/07\/09 09:19:41+00" }, "geometry": { "type": "Point", "coordinates": [ 10.707162, 59.965297 ] } },
{ "type": "Feature", "properties": { "Name": "Båsløkka", "description": null, "timestamp": "2017\/11\/28 22:50:02+00" }, "geometry": { "type": "Point", "coordinates": [ 10.338034, 59.153697 ] } },
{ "type": "Feature", "properties": { "Name": "Båtstøjordet", "description": "http:\/\/www.oslofjorden.com\/badesteder\/akershus\/baatstoejordent_badeplass_bearum.html", "timestamp": "2009\/06\/15 20:47:08+00" }, "geometry": { "type": "Point", "coordinates": [ 10.577747, 59.89203 ] } },
{ "type": "Feature", "properties": { "Name": "Båtstøvika", "description": "http:\/\/www.oslofjorden.com\/badesteder\/akershus\/baatstoeviken_badeplass_frogn.html", "timestamp": "2015\/03\/22 18:52:01+00" }, "geometry": { "type": "Point", "coordinates": [ 10.603393, 59.698586 ] } },
{ "type": "Feature", "properties": { "Name": "Båtviken, Strømstad", "description": null, "timestamp": "2016\/07\/31 21:33:35+00" }, "geometry": { "type": "Point", "coordinates": [ 11.137754, 58.947107 ] } },
{ "type": "Feature", "properties": { "Name": "Bøkkerkåsa", "description": null, "timestamp": "2009\/05\/26 17:12:43+00" }, "geometry": { "type": "Point", "coordinates": [ 9.64847, 59.104942 ] } },
{ "type": "Feature", "properties": { "Name": "Bøle Båtforening", "description": null, "timestamp": "2016\/07\/14 17:54:30+00" }, "geometry": { "type": "Point", "coordinates": [ 9.634559, 59.177084 ] } },
{ "type": "Feature", "properties": { "Name": "Børevigå gjestehavn, Stavanger", "description": null, "timestamp": "2016\/05\/19 16:32:20+00" }, "geometry": { "type": "Point", "coordinates": [ 5.732923, 58.973876 ] } },
{ "type": "Feature", "properties": { "Name": "Børraverket, Holmsbu", "description": "http:\/\/www.oslofjorden.com\/badesteder\/buskerud\/boerraverket_holmsbu_badeplass_hurum.html", "timestamp": "2009\/08\/31 22:34:42+00" }, "geometry": { "type": "Point", "coordinates": [ 10.422496, 59.559318 ] } },
{ "type": "Feature", "properties": { "Name": "Børtevannet", "description": null, "timestamp": "2012\/10\/14 11:49:35+00" }, "geometry": { "type": "Point", "coordinates": [ 11.302574, 59.274689 ] } },
{ "type": "Feature", "properties": { "Name": "Cafe Oline, Søndre Sandøy", "description": null, "timestamp": "2016\/10\/16 10:37:15+00" }, "geometry": { "type": "Point", "coordinates": [ 11.06756, 59.01337 ] } },
{ "type": "Feature", "properties": { "Name": "Capri", "description": null, "timestamp": "2009\/05\/09 05:44:59+00" }, "geometry": { "type": "Point", "coordinates": [ 11.12019, 58.968451 ] } },
{ "type": "Feature", "properties": { "Name": "Citadelløya\/Stavern fort", "description": null, "timestamp": "2015\/01\/02 22:15:55+00" }, "geometry": { "type": "Point", "coordinates": [ 10.049171, 58.99367 ] } },
{ "type": "Feature", "properties": { "Name": "Corntinbukta", "description": "http:\/\/www.oslofjorden.com\/badesteder\/vestfold\/corntin_stavern.html", "timestamp": "2014\/07\/15 20:05:35+00" }, "geometry": { "type": "Point", "coordinates": [ 10.039452, 58.992638 ] } },
{ "type": "Feature", "properties": { "Name": "Daftø Camping", "description": null, "timestamp": "2008\/08\/10 19:38:50+00" }, "geometry": { "type": "Point", "coordinates": [ 11.196012, 58.9014 ] } },
{ "type": "Feature", "properties": { "Name": "Dagros", "description": null, "timestamp": "2009\/08\/19 23:00:40+00" }, "geometry": { "type": "Point", "coordinates": [ 10.351353, 59.153481 ] } },
{ "type": "Feature", "properties": { "Name": "Dalbo brygge", "description": null, "timestamp": "2013\/04\/07 18:50:00+00" }, "geometry": { "type": "Point", "coordinates": [ 10.599661, 59.7891 ] } },
{ "type": "Feature", "properties": { "Name": "Dalen Hotell", "description": null, "timestamp": "2016\/07\/24 21:37:26+00" }, "geometry": { "type": "Point", "coordinates": [ 8.011179, 59.443846 ] } },
{ "type": "Feature", "properties": { "Name": "Dalen, Telemarkskanalen", "description": null, "timestamp": "2011\/08\/01 22:35:24+00" }, "geometry": { "type": "Point", "coordinates": [ 8.022833, 59.445 ] } },
{ "type": "Feature", "properties": { "Name": "Dampskipsbryggen", "description": null, "timestamp": "2009\/06\/05 19:25:59+00" }, "geometry": { "type": "Point", "coordinates": [ 10.768469, 59.868316 ] } },
{ "type": "Feature", "properties": { "Name": "Damtjern", "description": null, "timestamp": "2011\/07\/12 21:58:44+00" }, "geometry": { "type": "Point", "coordinates": [ 10.278783, 59.799271 ] } },
{ "type": "Feature", "properties": { "Name": "Danmarksbukten", "description": null, "timestamp": "2015\/02\/09 18:53:08+00" }, "geometry": { "type": "Point", "coordinates": [ 11.135959, 58.866939 ] } },
{ "type": "Feature", "properties": { "Name": "Daumannsbukta, Bamble", "description": null, "timestamp": "2010\/08\/23 17:53:40+00" }, "geometry": { "type": "Point", "coordinates": [ 9.688612, 58.970307 ] } },
{ "type": "Feature", "properties": { "Name": "Det grønne badehuset, Karljohansvern", "description": null, "timestamp": "2010\/05\/06 22:58:58+00" }, "geometry": { "type": "Point", "coordinates": [ 10.496846, 59.420818 ] } },
{ "type": "Feature", "properties": { "Name": "Devlebukta, Trondheim", "description": "Land", "timestamp": "2016\/04\/02 18:07:35+00" }, "geometry": { "type": "Point", "coordinates": [ 10.468096, 63.444655 ] } },
{ "type": "Feature", "properties": { "Name": "Digerud brygge", "description": null, "timestamp": "2014\/04\/17 07:53:23+00" }, "geometry": { "type": "Point", "coordinates": [ 10.588115, 59.72491 ] } },
{ "type": "Feature", "properties": { "Name": "Djupeklo, Fredrikstad", "description": "http:\/\/www.oslofjorden.com\/badesteder\/ostfold\/djupeklo_badeplass_fredrikstad.html", "timestamp": "2014\/04\/25 20:17:31+00" }, "geometry": { "type": "Point", "coordinates": [ 10.821474, 59.176704 ] } },
{ "type": "Feature", "properties": { "Name": "Djupvika parkering", "description": null, "timestamp": "2016\/04\/02 18:17:16+00" }, "geometry": { "type": "Point", "coordinates": [ 10.451399, 63.45583 ] } },
{ "type": "Feature", "properties": { "Name": "Djupvika, Trondheim", "description": null, "timestamp": "2016\/04\/02 18:23:13+00" }, "geometry": { "type": "Point", "coordinates": [ 10.447909, 63.457068 ] } },
{ "type": "Feature", "properties": { "Name": "Dokka Camping", "description": null, "timestamp": "2017\/02\/05 19:58:41+00" }, "geometry": { "type": "Point", "coordinates": [ 10.061553, 60.834875 ] } },
{ "type": "Feature", "properties": { "Name": "Domkirkeodden, Hamar", "description": null, "timestamp": "2017\/05\/14 12:23:09+00" }, "geometry": { "type": "Point", "coordinates": [ 11.038131, 60.791637 ] } },
{ "type": "Feature", "properties": { "Name": "Donestranda", "description": null, "timestamp": "2009\/05\/21 22:52:09+00" }, "geometry": { "type": "Point", "coordinates": [ 7.90777, 58.070322 ] } },
{ "type": "Feature", "properties": { "Name": "Dragsundet, Håøya", "description": "http:\/\/www.oslofjorden.com\/uthavner\/akershus\/dragsundet_haaoeya_uthavn_frogn.html", "timestamp": "2009\/06\/24 23:35:14+00" }, "geometry": { "type": "Point", "coordinates": [ 10.557667, 59.7072 ] } },
{ "type": "Feature", "properties": { "Name": "Drammmen fjernvarme parkering", "description": null, "timestamp": "2015\/06\/07 08:06:17+00" }, "geometry": { "type": "Point", "coordinates": [ 10.22961, 59.74129 ] } },
{ "type": "Feature", "properties": { "Name": "Dramstad badeplass 1", "description": null, "timestamp": "2012\/10\/25 21:45:07+00" }, "geometry": { "type": "Point", "coordinates": [ 10.430832, 59.635205 ] } },
{ "type": "Feature", "properties": { "Name": "Dramstad badeplass 2", "description": null, "timestamp": "2012\/10\/25 21:46:01+00" }, "geometry": { "type": "Point", "coordinates": [ 10.429855, 59.641256 ] } },
{ "type": "Feature", "properties": { "Name": "Dramstadbukta", "description": null, "timestamp": "2016\/09\/15 20:04:38+00" }, "geometry": { "type": "Point", "coordinates": [ 10.44048, 59.621702 ] } },
{ "type": "Feature", "properties": { "Name": "Dronningen marina (KNS)", "description": "kun diesel", "timestamp": "2016\/09\/04 17:34:30+00" }, "geometry": { "type": "Point", "coordinates": [ 10.695608, 59.90799 ] } },
{ "type": "Feature", "properties": { "Name": "Drøbak Akvarium", "description": null, "timestamp": "2010\/05\/06 22:50:36+00" }, "geometry": { "type": "Point", "coordinates": [ 10.627725, 59.661852 ] } },
{ "type": "Feature", "properties": { "Name": "Drøbak gjestehavn", "description": "http:\/\/www.oslofjorden.com\/gjestehavn_marina\/droebak_gjestehavn_frogn_akershus.html", "timestamp": "2013\/08\/21 21:01:44+00" }, "geometry": { "type": "Point", "coordinates": [ 10.627965, 59.659228 ] } },
{ "type": "Feature", "properties": { "Name": "Drøbak Havn", "description": "http:\/\/www.oslofjorden.com\/gjestehavn_marina\/droebak_baathavn_frogn_akershus.html", "timestamp": "2009\/06\/01 22:41:39+00" }, "geometry": { "type": "Point", "coordinates": [ 10.626604, 59.662898 ] } },
{ "type": "Feature", "properties": { "Name": "Duestranda, Larkollen", "description": "http:\/\/www.oslofjorden.com\/badesteder\/ostfold\/duestranda_badeplass_rygge.html", "timestamp": "2010\/05\/30 18:11:23+00" }, "geometry": { "type": "Point", "coordinates": [ 10.671776, 59.323371 ] } },
{ "type": "Feature", "properties": { "Name": "Dulpen, Holmestrand", "description": "http:\/\/www.oslofjorden.com\/badesteder\/vestfold\/dulpen_holmestrand.html", "timestamp": "2009\/06\/04 23:08:54+00" }, "geometry": { "type": "Point", "coordinates": [ 10.312772, 59.493472 ] } },
{ "type": "Feature", "properties": { "Name": "Dusa", "description": "http:\/\/www.oslofjorden.com\/badesteder\/ostfold\/dusa_badeplass_sarpsborg.html", "timestamp": "2013\/06\/08 22:05:20+00" }, "geometry": { "type": "Point", "coordinates": [ 11.176953, 59.133854 ] } },
{ "type": "Feature", "properties": { "Name": "Dusavikstranda, Stavanger", "description": null, "timestamp": "2016\/05\/19 20:21:12+00" }, "geometry": { "type": "Point", "coordinates": [ 5.674959, 58.996068 ] } },
{ "type": "Feature", "properties": { "Name": "Dvergnestangen", "description": null, "timestamp": "2010\/04\/25 21:17:53+00" }, "geometry": { "type": "Point", "coordinates": [ 8.063444, 58.122279 ] } },
{ "type": "Feature", "properties": { "Name": "Dyna Fyr", "description": null, "timestamp": "2010\/03\/14 22:54:27+00" }, "geometry": { "type": "Point", "coordinates": [ 10.688467, 59.894867 ] } },
{ "type": "Feature", "properties": { "Name": "Dølsholmen, Nordre Land", "description": null, "timestamp": "2017\/02\/05 19:53:44+00" }, "geometry": { "type": "Point", "coordinates": [ 10.061231, 60.828726 ] } },
{ "type": "Feature", "properties": { "Name": "Døvika, Asmaløy", "description": null, "timestamp": "2017\/03\/11 18:15:30+00" }, "geometry": { "type": "Point", "coordinates": [ 10.958573, 59.066296 ] } },
{ "type": "Feature", "properties": { "Name": "Edholmen Marina", "description": null, "timestamp": "2010\/04\/17 11:42:03+00" }, "geometry": { "type": "Point", "coordinates": [ 11.072855, 59.084519 ] } },
{ "type": "Feature", "properties": { "Name": "Egenes Camping", "description": null, "timestamp": "2010\/04\/25 11:28:02+00" }, "geometry": { "type": "Point", "coordinates": [ 6.714039, 58.289751 ] } },
{ "type": "Feature", "properties": { "Name": "Eidanger", "description": null, "timestamp": "2009\/03\/31 19:06:47+00" }, "geometry": { "type": "Point", "coordinates": [ 9.716404, 59.109427 ] } },
{ "type": "Feature", "properties": { "Name": "Eidsfoss sluser, Telemarkskanalen", "description": null, "timestamp": "2016\/07\/17 09:43:59+00" }, "geometry": { "type": "Point", "coordinates": [ 9.222078, 59.296432 ] } },
{ "type": "Feature", "properties": { "Name": "Eidsvoll", "description": null, "timestamp": "2009\/03\/15 15:35:51+00" }, "geometry": { "type": "Point", "coordinates": [ 11.251856, 60.328229 ] } },
{ "type": "Feature", "properties": { "Name": "Einersvika", "description": null, "timestamp": "2015\/06\/09 21:31:40+00" }, "geometry": { "type": "Point", "coordinates": [ 9.129807, 58.646525 ] } },
{ "type": "Feature", "properties": { "Name": "Eister", "description": "http:\/\/www.oslofjorden.com\/badesteder\/akershus\/eister_badeplass_gjersjoen_oppegaard.html", "timestamp": "2012\/09\/30 18:58:56+00" }, "geometry": { "type": "Point", "coordinates": [ 10.790189, 59.790099 ] } },
{ "type": "Feature", "properties": { "Name": "Ekebukt", "description": null, "timestamp": "2015\/05\/21 21:38:21+00" }, "geometry": { "type": "Point", "coordinates": [ 10.952677, 59.13328 ] } },
{ "type": "Feature", "properties": { "Name": "Ekeby Gård", "description": null, "timestamp": "2011\/05\/07 08:19:47+00" }, "geometry": { "type": "Point", "coordinates": [ 10.665622, 59.387584 ] } },
{ "type": "Feature", "properties": { "Name": "Ekenäs, Sydkoster", "description": null, "timestamp": "2014\/09\/15 19:40:24+00" }, "geometry": { "type": "Point", "coordinates": [ 11.048456, 58.893685 ] } },
{ "type": "Feature", "properties": { "Name": "Ekholt skole parkering", "description": null, "timestamp": "2010\/05\/30 18:04:12+00" }, "geometry": { "type": "Point", "coordinates": [ 10.67605, 59.408097 ] } },
{ "type": "Feature", "properties": { "Name": "Ekrebukta, Hurum", "description": "http:\/\/www.oslofjorden.com\/badesteder\/buskerud\/ekrebukta_filtvet_strand_badeplass_hurum.html", "timestamp": "2014\/03\/08 19:22:21+00" }, "geometry": { "type": "Point", "coordinates": [ 10.611894, 59.56943 ] } },
{ "type": "Feature", "properties": { "Name": "Eldøya, Kollensundet", "description": null, "timestamp": "2010\/05\/30 17:55:05+00" }, "geometry": { "type": "Point", "coordinates": [ 10.649967, 59.326983 ] } },
{ "type": "Feature", "properties": { "Name": "Elgå, Femunden ??", "description": "usikker posisjon", "timestamp": "2010\/09\/12 19:17:43+00" }, "geometry": { "type": "Point", "coordinates": [ 11.940114, 62.166956 ] } },
{ "type": "Feature", "properties": { "Name": "Ellefstranda, Røyken", "description": "http:\/\/www.oslofjorden.com\/badesteder\/buskerud\/ellefstranda_badeplass_roeyken.html", "timestamp": "2009\/06\/25 22:42:15+00" }, "geometry": { "type": "Point", "coordinates": [ 10.512048, 59.764236 ] } },
{ "type": "Feature", "properties": { "Name": "Elleskjær, Drøbak", "description": "http:\/\/www.oslofjorden.com\/badesteder\/akershus\/elleskjaer_badeplass_frogn.html", "timestamp": "2009\/06\/01 21:38:51+00" }, "geometry": { "type": "Point", "coordinates": [ 10.635538, 59.644046 ] } },
{ "type": "Feature", "properties": { "Name": "Ellingstranda, Saltnes", "description": "http:\/\/www.oslofjorden.com\/badesteder\/ostfold\/ellingstranda_badeplass_raade.html", "timestamp": "2009\/09\/06 18:19:02+00" }, "geometry": { "type": "Point", "coordinates": [ 10.74707, 59.291805 ] } },
{ "type": "Feature", "properties": { "Name": "Elnestangen parkering", "description": null, "timestamp": "2013\/05\/20 18:11:06+00" }, "geometry": { "type": "Point", "coordinates": [ 10.498327, 59.801441 ] } },
{ "type": "Feature", "properties": { "Name": "Elnestangen, Asker", "description": null, "timestamp": "2013\/09\/01 18:26:39+00" }, "geometry": { "type": "Point", "coordinates": [ 10.502935, 59.80295 ] } },
{ "type": "Feature", "properties": { "Name": "Eltorn", "description": null, "timestamp": "2012\/10\/23 19:00:44+00" }, "geometry": { "type": "Point", "coordinates": [ 10.615776, 59.600683 ] } },
{ "type": "Feature", "properties": { "Name": "Emmerstadbukta", "description": "http:\/\/www.oslofjorden.com\/badesteder\/akershus\/emmerstadbukta_badeplass_vestby.html", "timestamp": "2012\/09\/15 20:12:31+00" }, "geometry": { "type": "Point", "coordinates": [ 10.655891, 59.58329 ] } },
{ "type": "Feature", "properties": { "Name": "Emmerstadbukta parkering", "description": null, "timestamp": "2012\/09\/15 20:13:28+00" }, "geometry": { "type": "Point", "coordinates": [ 10.659157, 59.583287 ] } },
{ "type": "Feature", "properties": { "Name": "Engelshamn Marina", "description": null, "timestamp": "2015\/05\/30 07:25:29+00" }, "geometry": { "type": "Point", "coordinates": [ 5.228337, 60.39073 ] } },
{ "type": "Feature", "properties": { "Name": "Engelsviken", "description": null, "timestamp": "2010\/04\/17 12:40:13+00" }, "geometry": { "type": "Point", "coordinates": [ 10.735596, 59.252203 ] } },
{ "type": "Feature", "properties": { "Name": "Engersand", "description": null, "timestamp": "2014\/05\/11 18:46:24+00" }, "geometry": { "type": "Point", "coordinates": [ 10.302041, 59.729636 ] } },
{ "type": "Feature", "properties": { "Name": "Engersand friområde, Lier", "description": null, "timestamp": "2014\/03\/15 16:01:29+00" }, "geometry": { "type": "Point", "coordinates": [ 10.303437, 59.72616 ] } },
{ "type": "Feature", "properties": { "Name": "Engersand havn, Lier", "description": null, "timestamp": "2014\/03\/15 16:00:53+00" }, "geometry": { "type": "Point", "coordinates": [ 10.300376, 59.73316 ] } },
{ "type": "Feature", "properties": { "Name": "Engholmstranda, Larkollen", "description": "http:\/\/www.oslofjorden.com\/badesteder\/ostfold\/engholmstranda_badeplass_rygge.html", "timestamp": "2010\/04\/18 11:07:53+00" }, "geometry": { "type": "Point", "coordinates": [ 10.681201, 59.315196 ] } },
{ "type": "Feature", "properties": { "Name": "Engø", "description": null, "timestamp": "2016\/08\/06 09:43:11+00" }, "geometry": { "type": "Point", "coordinates": [ 10.317106, 59.146421 ] } },
{ "type": "Feature", "properties": { "Name": "Engø badeplass", "description": "http:\/\/www.oslofjorden.com\/badesteder\/vestfold\/engoe_tjoeme.html", "timestamp": "2009\/08\/16 18:11:42+00" }, "geometry": { "type": "Point", "coordinates": [ 10.4237, 59.120342 ] } },
{ "type": "Feature", "properties": { "Name": "Engø rampe", "description": null, "timestamp": "2007\/06\/29 21:00:14+00" }, "geometry": { "type": "Point", "coordinates": [ 10.42365, 59.12213 ] } },
{ "type": "Feature", "properties": { "Name": "Enhus", "description": "http:\/\/www.oslofjorden.com\/badesteder\/ostfold\/enhus_badeplass_fredrikstad.html", "timestamp": "2009\/08\/02 00:44:34+00" }, "geometry": { "type": "Point", "coordinates": [ 10.900925, 59.185682 ] } },
{ "type": "Feature", "properties": { "Name": "Ergan kystfort", "description": null, "timestamp": "2016\/05\/21 21:08:04+00" }, "geometry": { "type": "Point", "coordinates": [ 6.907571, 62.908104 ] } },
{ "type": "Feature", "properties": { "Name": "Ertsvika", "description": "http:\/\/www.oslofjorden.com\/badesteder\/vestfold\/ertsvika_oesteroeya_sandefjord.html", "timestamp": "2012\/09\/21 13:38:42+00" }, "geometry": { "type": "Point", "coordinates": [ 10.304494, 59.058541 ] } },
{ "type": "Feature", "properties": { "Name": "Ertsvika, Hurum", "description": "http:\/\/www.oslofjorden.com\/badesteder\/buskerud\/ertsvika_badeplass_hurum.html", "timestamp": "2009\/08\/31 21:15:04+00" }, "geometry": { "type": "Point", "coordinates": [ 10.483185, 59.525121 ] } },
{ "type": "Feature", "properties": { "Name": "Ertsvikodden", "description": null, "timestamp": "2012\/10\/24 22:12:10+00" }, "geometry": { "type": "Point", "coordinates": [ 10.492581, 59.520486 ] } },
{ "type": "Feature", "properties": { "Name": "Ervikstranda", "description": null, "timestamp": "2017\/03\/26 19:08:59+00" }, "geometry": { "type": "Point", "coordinates": [ 5.109866, 62.16558 ] } },
{ "type": "Feature", "properties": { "Name": "Esso Marina Porsgrunn", "description": null, "timestamp": "2015\/05\/27 21:31:16+00" }, "geometry": { "type": "Point", "coordinates": [ 9.631082, 59.133787 ] } },
{ "type": "Feature", "properties": { "Name": "Esso, Kystveien Service & Marina", "description": null, "timestamp": "2013\/08\/27 14:56:27+00" }, "geometry": { "type": "Point", "coordinates": [ 8.794006, 58.467427 ] } },
{ "type": "Feature", "properties": { "Name": "Essoskogen parkering", "description": null, "timestamp": "2011\/04\/21 22:28:40+00" }, "geometry": { "type": "Point", "coordinates": [ 10.512562, 59.310031 ] } },
{ "type": "Feature", "properties": { "Name": "Evjesund Golfrestaurant", "description": null, "timestamp": "2011\/05\/07 08:27:51+00" }, "geometry": { "type": "Point", "coordinates": [ 10.676593, 59.370201 ] } },
{ "type": "Feature", "properties": { "Name": "Evjua Camping og Strandpark, Østre Toten", "description": null, "timestamp": "2017\/05\/13 22:57:23+00" }, "geometry": { "type": "Point", "coordinates": [ 11.045169, 60.64335 ] } },
{ "type": "Feature", "properties": { "Name": "Eydehavn", "description": null, "timestamp": "2009\/05\/05 22:08:18+00" }, "geometry": { "type": "Point", "coordinates": [ 8.861955, 58.505595 ] } },
{ "type": "Feature", "properties": { "Name": "Fagerstrand badeplass", "description": "http:\/\/www.oslofjorden.com\/badesteder\/akershus\/fagerstrand_badeplass_nesodden.html", "timestamp": "2013\/04\/07 18:46:24+00" }, "geometry": { "type": "Point", "coordinates": [ 10.590045, 59.732722 ] } },
{ "type": "Feature", "properties": { "Name": "Fagerstrand brygge", "description": null, "timestamp": "2007\/07\/08 20:52:06+00" }, "geometry": { "type": "Point", "coordinates": [ 10.587173, 59.73377 ] } },
{ "type": "Feature", "properties": { "Name": "Fagerstrand parkering", "description": null, "timestamp": "2016\/09\/10 08:31:19+00" }, "geometry": { "type": "Point", "coordinates": [ 10.589141, 59.734381 ] } },
{ "type": "Feature", "properties": { "Name": "Fagertun, Båtstø", "description": "http:\/\/www.oslofjorden.com\/badesteder\/buskerud\/fagertun_badeplass_roeyken.html", "timestamp": "2013\/02\/18 22:33:09+00" }, "geometry": { "type": "Point", "coordinates": [ 10.519253, 59.726946 ] } },
{ "type": "Feature", "properties": { "Name": "Fagervik, Røyken", "description": "http:\/\/www.oslofjorden.com\/badesteder\/buskerud\/fagervik_badeplass_roeyken.html", "timestamp": "2014\/05\/11 19:06:14+00" }, "geometry": { "type": "Point", "coordinates": [ 10.35589, 59.711558 ] } },
{ "type": "Feature", "properties": { "Name": "Familjeviken, Nordkoster", "description": null, "timestamp": "2009\/06\/03 14:22:13+00" }, "geometry": { "type": "Point", "coordinates": [ 11.018086, 58.904517 ] } },
{ "type": "Feature", "properties": { "Name": "Fantebukta", "description": null, "timestamp": "2010\/01\/21 21:40:39+00" }, "geometry": { "type": "Point", "coordinates": [ 10.31045, 59.533143 ] } },
{ "type": "Feature", "properties": { "Name": "Faratangen", "description": "http:\/\/www.oslofjorden.com\/badesteder\/ostfold\/faratangen_badeplass_fredrikstad.html", "timestamp": "2009\/08\/02 00:45:40+00" }, "geometry": { "type": "Point", "coordinates": [ 10.865921, 59.180296 ] } },
{ "type": "Feature", "properties": { "Name": "Farstadsanden", "description": null, "timestamp": "2016\/05\/21 21:13:17+00" }, "geometry": { "type": "Point", "coordinates": [ 7.150443, 62.982077 ] } },
{ "type": "Feature", "properties": { "Name": "Fastland badeanlegg, Gjøvik", "description": null, "timestamp": "2017\/02\/05 16:04:59+00" }, "geometry": { "type": "Point", "coordinates": [ 10.674934, 60.797825 ] } },
{ "type": "Feature", "properties": { "Name": "Feda Småbåthavn", "description": null, "timestamp": "2010\/04\/24 19:37:31+00" }, "geometry": { "type": "Point", "coordinates": [ 6.819565, 58.262573 ] } },
{ "type": "Feature", "properties": { "Name": "Ferge Oslo", "description": null, "timestamp": "2016\/10\/08 15:00:29+00" }, "geometry": { "type": "Point", "coordinates": [ 10.730316, 59.910238 ] } },
{ "type": "Feature", "properties": { "Name": "Feriehjemmet", "description": "http:\/\/www.oslofjorden.com\/badesteder\/ostfold\/feriehjemmet_badeplass_sarpsborg.html", "timestamp": "2012\/10\/14 11:44:31+00" }, "geometry": { "type": "Point", "coordinates": [ 11.167427, 59.189389 ] } },
{ "type": "Feature", "properties": { "Name": "Ferieklubben Kalvøya", "description": "http:\/\/www.oslofjorden.com\/badesteder\/akershus\/ferieklubben_kalvoeya.html", "timestamp": "2009\/05\/20 17:16:13+00" }, "geometry": { "type": "Point", "coordinates": [ 10.543148, 59.887462 ] } },
{ "type": "Feature", "properties": { "Name": "Feskjær", "description": "http:\/\/www.oslofjorden.com\/badesteder\/vestfold\/feskjear_badeplass.html", "timestamp": "2009\/08\/19 22:33:33+00" }, "geometry": { "type": "Point", "coordinates": [ 10.486568, 59.33763 ] } },
{ "type": "Feature", "properties": { "Name": "Festehøy", "description": "http:\/\/www.oslofjorden.com\/badesteder\/ostfold\/festehoey_badeplass_rygge.html", "timestamp": "2017\/04\/01 17:31:09+00" }, "geometry": { "type": "Point", "coordinates": [ 10.652788, 59.409172 ] } },
{ "type": "Feature", "properties": { "Name": "Festestranda", "description": "http:\/\/www.oslofjorden.com\/badesteder\/ostfold\/festestranda_badeplass_rygge.html", "timestamp": "2017\/04\/01 17:31:45+00" }, "geometry": { "type": "Point", "coordinates": [ 10.655799, 59.414165 ] } },
{ "type": "Feature", "properties": { "Name": "Fetsund", "description": null, "timestamp": "2009\/10\/25 20:05:34+00" }, "geometry": { "type": "Point", "coordinates": [ 11.163871, 59.926594 ] } },
{ "type": "Feature", "properties": { "Name": "Fetsund lensemuseum", "description": null, "timestamp": "2010\/09\/11 10:14:57+00" }, "geometry": { "type": "Point", "coordinates": [ 11.134219, 59.913336 ] } },
{ "type": "Feature", "properties": { "Name": "Filtvedt brygge", "description": null, "timestamp": "2009\/03\/21 17:25:55+00" }, "geometry": { "type": "Point", "coordinates": [ 10.616979, 59.573491 ] } },
{ "type": "Feature", "properties": { "Name": "Filtvedt Fyr", "description": null, "timestamp": "2009\/08\/04 11:45:27+00" }, "geometry": { "type": "Point", "coordinates": [ 10.617683, 59.57077 ] } },
{ "type": "Feature", "properties": { "Name": "Fiske badeplass, Jeløy", "description": "http:\/\/www.oslofjorden.com\/badesteder\/ostfold\/fiske_badeplass_moss.html", "timestamp": "2013\/04\/28 07:59:13+00" }, "geometry": { "type": "Point", "coordinates": [ 10.645263, 59.429066 ] } },
{ "type": "Feature", "properties": { "Name": "Fiske Båtforening", "description": null, "timestamp": "2007\/07\/08 20:42:36+00" }, "geometry": { "type": "Point", "coordinates": [ 10.645683, 59.429786 ] } },
{ "type": "Feature", "properties": { "Name": "Fiskebrygga", "description": null, "timestamp": "2009\/05\/05 10:22:31+00" }, "geometry": { "type": "Point", "coordinates": [ 7.995584, 58.141039 ] } },
{ "type": "Feature", "properties": { "Name": "Fiskebrygga, Lille Arøya", "description": "Ferge Helgeroa Langesund", "timestamp": "2015\/06\/30 18:53:56+00" }, "geometry": { "type": "Point", "coordinates": [ 9.785385, 59.016218 ] } },
{ "type": "Feature", "properties": { "Name": "Fiskekroken, Søndre Sandøy", "description": null, "timestamp": "2016\/10\/16 10:30:49+00" }, "geometry": { "type": "Point", "coordinates": [ 11.088463, 59.012327 ] } },
{ "type": "Feature", "properties": { "Name": "Fiskerly Parking", "description": null, "timestamp": "2017\/05\/14 11:19:10+00" }, "geometry": { "type": "Point", "coordinates": [ 10.95484, 60.85306 ] } },
{ "type": "Feature", "properties": { "Name": "Fiskerly, Ringsaker", "description": null, "timestamp": "2017\/05\/14 11:17:56+00" }, "geometry": { "type": "Point", "coordinates": [ 10.9496, 60.85471 ] } },
{ "type": "Feature", "properties": { "Name": "Fiskevollbukta", "description": "http:\/\/www.oslofjorden.com\/badesteder\/oslo\/fiskevollbukta_badeplass_oslo.html", "timestamp": "2009\/05\/08 21:33:25+00" }, "geometry": { "type": "Point", "coordinates": [ 10.775437, 59.841707 ] } },
{ "type": "Feature", "properties": { "Name": "Fjellstrand brygge", "description": null, "timestamp": "2010\/08\/07 22:46:44+00" }, "geometry": { "type": "Point", "coordinates": [ 10.60628, 59.794176 ] } },
{ "type": "Feature", "properties": { "Name": "Fjordparken, Drammen", "description": "http:\/\/www.oslofjorden.com\/badesteder\/buskerud\/fjordparken_badeplass_drammen.html", "timestamp": "2015\/06\/07 08:05:15+00" }, "geometry": { "type": "Point", "coordinates": [ 10.239009, 59.741675 ] } },
{ "type": "Feature", "properties": { "Name": "Fjällbacka diesel", "description": "Bare diesel", "timestamp": "2014\/09\/15 20:41:34+00" }, "geometry": { "type": "Point", "coordinates": [ 11.281553, 58.598665 ] } },
{ "type": "Feature", "properties": { "Name": "Fjällbacka gjestehavn", "description": null, "timestamp": "2014\/09\/15 20:49:01+00" }, "geometry": { "type": "Point", "coordinates": [ 11.281633, 58.598053 ] } },
{ "type": "Feature", "properties": { "Name": "Fjällbacka rampe", "description": null, "timestamp": "2014\/09\/15 20:46:47+00" }, "geometry": { "type": "Point", "coordinates": [ 11.28606, 58.609025 ] } },
{ "type": "Feature", "properties": { "Name": "Fjærekilen, Nordsjø", "description": null, "timestamp": "2016\/07\/14 19:51:38+00" }, "geometry": { "type": "Point", "coordinates": [ 9.516625, 59.184382 ] } },
{ "type": "Feature", "properties": { "Name": "Fjærholmen", "description": "http:\/\/www.oslofjorden.com\/badesteder\/vestfold\/fjearholmen_badeplass_noetteroe.html", "timestamp": "2009\/06\/04 21:34:13+00" }, "geometry": { "type": "Point", "coordinates": [ 10.465099, 59.222015 ] } },
{ "type": "Feature", "properties": { "Name": "Flaskebekk brygge", "description": null, "timestamp": "2014\/04\/17 07:46:23+00" }, "geometry": { "type": "Point", "coordinates": [ 10.653133, 59.860554 ] } },
{ "type": "Feature", "properties": { "Name": "Flateby", "description": null, "timestamp": "2010\/03\/14 12:16:51+00" }, "geometry": { "type": "Point", "coordinates": [ 11.175606, 59.828661 ] } },
{ "type": "Feature", "properties": { "Name": "Flautangen", "description": "http:\/\/www.oslofjorden.com\/badesteder\/vestfold\/flautangen_badeplass_sandefjord.html", "timestamp": "2009\/08\/25 22:48:14+00" }, "geometry": { "type": "Point", "coordinates": [ 10.305783, 59.084765 ] } },
{ "type": "Feature", "properties": { "Name": "Flautangen parkering", "description": null, "timestamp": "2009\/10\/29 23:05:52+00" }, "geometry": { "type": "Point", "coordinates": [ 10.30124, 59.087605 ] } },
{ "type": "Feature", "properties": { "Name": "Flåtavika, Fredrikstad", "description": "http:\/\/www.oslofjorden.com\/badesteder\/ostfold\/flaatavika_badeplass_fredrikstad.html", "timestamp": "2010\/04\/18 19:54:52+00" }, "geometry": { "type": "Point", "coordinates": [ 10.736345, 59.245097 ] } },
{ "type": "Feature", "properties": { "Name": "Fløyholmen", "description": null, "timestamp": "2014\/12\/18 20:41:47+00" }, "geometry": { "type": "Point", "coordinates": [ 11.029568, 59.004496 ] } },
{ "type": "Feature", "properties": { "Name": "Folehavna", "description": "http:\/\/www.oslofjorden.com\/badesteder\/vestfold\/folehavna_badeplass_sandefjord.html", "timestamp": "2014\/09\/08 21:20:55+00" }, "geometry": { "type": "Point", "coordinates": [ 10.26952, 59.046246 ] } },
{ "type": "Feature", "properties": { "Name": "Folehavna Fort", "description": null, "timestamp": "2009\/10\/29 23:33:22+00" }, "geometry": { "type": "Point", "coordinates": [ 10.271377, 59.042404 ] } },
{ "type": "Feature", "properties": { "Name": "Folehavna parkering", "description": null, "timestamp": "2014\/09\/08 21:22:28+00" }, "geometry": { "type": "Point", "coordinates": [ 10.268698, 59.055033 ] } },
{ "type": "Feature", "properties": { "Name": "Follo Museum", "description": null, "timestamp": "2013\/03\/29 11:13:51+00" }, "geometry": { "type": "Point", "coordinates": [ 10.642167, 59.672187 ] } },
{ "type": "Feature", "properties": { "Name": "Fornebu Sjøflyhavna", "description": null, "timestamp": "2007\/06\/21 19:18:45+00" }, "geometry": { "type": "Point", "coordinates": [ 10.632999, 59.893828 ] } },
{ "type": "Feature", "properties": { "Name": "Fornebukta badeplass", "description": "http:\/\/www.oslofjorden.com\/badesteder\/akershus\/fornebukta_badeplass_fornebu.html", "timestamp": "2010\/08\/21 23:50:38+00" }, "geometry": { "type": "Point", "coordinates": [ 10.63313, 59.901903 ] } },
{ "type": "Feature", "properties": { "Name": "Forusstranda, Stavanger", "description": null, "timestamp": "2016\/05\/19 19:44:26+00" }, "geometry": { "type": "Point", "coordinates": [ 5.749377, 58.890184 ] } },
{ "type": "Feature", "properties": { "Name": "Fossum bru, Askim", "description": null, "timestamp": "2012\/11\/13 22:14:55+00" }, "geometry": { "type": "Point", "coordinates": [ 11.101933, 59.602043 ] } },
{ "type": "Feature", "properties": { "Name": "Foten parkering, Fredrikstad", "description": null, "timestamp": "2014\/04\/25 20:15:56+00" }, "geometry": { "type": "Point", "coordinates": [ 10.83252, 59.171333 ] } },
{ "type": "Feature", "properties": { "Name": "Foten, Fredrikstad", "description": "http:\/\/www.oslofjorden.com\/badesteder\/ostfold\/foten_badeplass_fredrikstad.html", "timestamp": "2009\/05\/08 23:18:28+00" }, "geometry": { "type": "Point", "coordinates": [ 10.827967, 59.170497 ] } },
{ "type": "Feature", "properties": { "Name": "Fram, Kontiki, Sjøfartsmuseet", "description": null, "timestamp": "2010\/05\/02 23:26:42+00" }, "geometry": { "type": "Point", "coordinates": [ 10.698606, 59.903729 ] } },
{ "type": "Feature", "properties": { "Name": "Framnes marina", "description": null, "timestamp": "2009\/07\/18 09:55:54+00" }, "geometry": { "type": "Point", "coordinates": [ 10.228486, 59.116187 ] } },
{ "type": "Feature", "properties": { "Name": "Framnes, Jeløy", "description": "http:\/\/www.oslofjorden.com\/badesteder\/ostfold\/framnes_badeplass_moss.html", "timestamp": "2013\/05\/01 19:13:13+00" }, "geometry": { "type": "Point", "coordinates": [ 10.635078, 59.421681 ] } },
{ "type": "Feature", "properties": { "Name": "Franklinodden, Larvik", "description": null, "timestamp": "2016\/10\/08 15:04:46+00" }, "geometry": { "type": "Point", "coordinates": [ 10.065727, 59.024691 ] } },
{ "type": "Feature", "properties": { "Name": "Frebergkastet", "description": null, "timestamp": "2012\/05\/04 16:48:10+00" }, "geometry": { "type": "Point", "coordinates": [ 10.375814, 59.441915 ] } },
{ "type": "Feature", "properties": { "Name": "Fredagshølet", "description": null, "timestamp": "2009\/08\/02 21:51:01+00" }, "geometry": { "type": "Point", "coordinates": [ 10.854492, 59.120865 ] } },
{ "type": "Feature", "properties": { "Name": "Fredriksens strand", "description": null, "timestamp": "2015\/06\/30 18:46:55+00" }, "geometry": { "type": "Point", "coordinates": [ 9.79868, 59.001075 ] } },
{ "type": "Feature", "properties": { "Name": "Fredrikstad gjestehavn", "description": null, "timestamp": "2016\/05\/02 09:23:34+00" }, "geometry": { "type": "Point", "coordinates": [ 10.93352, 59.213521 ] } },
{ "type": "Feature", "properties": { "Name": "Fredrikstad Motorbåtforening \/ Fjeldberg båthavn", "description": null, "timestamp": "2010\/04\/17 13:40:51+00" }, "geometry": { "type": "Point", "coordinates": [ 10.919468, 59.219776 ] } },
{ "type": "Feature", "properties": { "Name": "Fredriksten festning", "description": null, "timestamp": "2016\/08\/01 19:12:27+00" }, "geometry": { "type": "Point", "coordinates": [ 11.396805, 59.119903 ] } },
{ "type": "Feature", "properties": { "Name": "Fredriksvern", "description": null, "timestamp": "2014\/07\/15 20:08:55+00" }, "geometry": { "type": "Point", "coordinates": [ 10.03839, 58.99633 ] } },
{ "type": "Feature", "properties": { "Name": "Freyborg, Hurum", "description": "http:\/\/www.oslofjorden.com\/badesteder\/buskerud\/freyborg_badeplass_hurum.html", "timestamp": "2009\/08\/31 22:23:30+00" }, "geometry": { "type": "Point", "coordinates": [ 10.605503, 59.641911 ] } },
{ "type": "Feature", "properties": { "Name": "Fristranda Glomstadbukta, Gjøvik", "description": null, "timestamp": "2017\/02\/05 16:07:15+00" }, "geometry": { "type": "Point", "coordinates": [ 10.678821, 60.823411 ] } },
{ "type": "Feature", "properties": { "Name": "Fristranda, Larvik", "description": "http:\/\/www.oslofjorden.com\/badesteder\/vestfold\/fristranda_badeplass_larvik.html", "timestamp": "2015\/05\/26 20:39:34+00" }, "geometry": { "type": "Point", "coordinates": [ 9.969281, 58.982809 ] } },
{ "type": "Feature", "properties": { "Name": "Fristranda, Oven", "description": "http:\/\/www.oslofjorden.com\/badesteder\/ostfold\/fristranda_badeplass_oven_raade.html", "timestamp": "2009\/09\/06 18:22:36+00" }, "geometry": { "type": "Point", "coordinates": [ 10.725807, 59.311797 ] } },
{ "type": "Feature", "properties": { "Name": "Fritzøe brygge gjestehavn", "description": null, "timestamp": "2015\/01\/01 23:04:01+00" }, "geometry": { "type": "Point", "coordinates": [ 10.021867, 59.049133 ] } },
{ "type": "Feature", "properties": { "Name": "Frognerbadet", "description": null, "timestamp": "2012\/11\/18 09:26:22+00" }, "geometry": { "type": "Point", "coordinates": [ 10.708008, 59.92826 ] } },
{ "type": "Feature", "properties": { "Name": "Frognerparken", "description": null, "timestamp": "2012\/11\/18 09:29:31+00" }, "geometry": { "type": "Point", "coordinates": [ 10.70405, 59.926695 ] } },
{ "type": "Feature", "properties": { "Name": "Frognerparken, Parking Middelthuns gate", "description": "Parking", "timestamp": "2012\/11\/18 09:27:18+00" }, "geometry": { "type": "Point", "coordinates": [ 10.706949, 59.929047 ] } },
{ "type": "Feature", "properties": { "Name": "Fruvika", "description": "http:\/\/www.oslofjorden.com\/badesteder\/vestfold\/fruvika_badeplass_sandefjord.html", "timestamp": "2014\/09\/08 21:20:01+00" }, "geometry": { "type": "Point", "coordinates": [ 10.278653, 59.050356 ] } },
{ "type": "Feature", "properties": { "Name": "Fruvikodden", "description": null, "timestamp": "2014\/09\/08 21:20:12+00" }, "geometry": { "type": "Point", "coordinates": [ 10.278546, 59.047782 ] } },
{ "type": "Feature", "properties": { "Name": "Fuglevik Marina, Rygge", "description": null, "timestamp": "2008\/09\/08 20:21:48+00" }, "geometry": { "type": "Point", "coordinates": [ 10.651648, 59.3877 ] } },
{ "type": "Feature", "properties": { "Name": "Fuglevika", "description": "Usikker posisjon", "timestamp": "2014\/06\/04 22:32:45+00" }, "geometry": { "type": "Point", "coordinates": [ 10.378033, 59.165218 ] } },
{ "type": "Feature", "properties": { "Name": "Fuglevikstranda", "description": null, "timestamp": "2009\/05\/05 10:09:49+00" }, "geometry": { "type": "Point", "coordinates": [ 8.050125, 58.146152 ] } },
{ "type": "Feature", "properties": { "Name": "Fuglevikstranda, Fuglevik", "description": "http:\/\/www.oslofjorden.com\/badesteder\/ostfold\/fuglevikstranda_badeplass_rygge.html", "timestamp": "2009\/05\/15 22:56:11+00" }, "geometry": { "type": "Point", "coordinates": [ 10.651914, 59.388573 ] } },
{ "type": "Feature", "properties": { "Name": "Fulehuk Fyr", "description": null, "timestamp": "2010\/03\/14 22:52:44+00" }, "geometry": { "type": "Point", "coordinates": [ 10.599392, 59.175518 ] } },
{ "type": "Feature", "properties": { "Name": "Furholmen", "description": null, "timestamp": "2009\/08\/01 20:40:06+00" }, "geometry": { "type": "Point", "coordinates": [ 11.155539, 58.932658 ] } },
{ "type": "Feature", "properties": { "Name": "Furst Brygge, Snarøya", "description": "http:\/\/www.oslofjorden.com\/badesteder\/akershus\/furst_brygge_badeplass_fornebu.html", "timestamp": "2009\/05\/20 17:28:27+00" }, "geometry": { "type": "Point", "coordinates": [ 10.606017, 59.874045 ] } },
{ "type": "Feature", "properties": { "Name": "Furua Pizza", "description": "Blakstad Bryggevei og Smug", "timestamp": "2009\/06\/25 22:33:34+00" }, "geometry": { "type": "Point", "coordinates": [ 10.476279, 59.81648 ] } },
{ "type": "Feature", "properties": { "Name": "Furustrand", "description": "http:\/\/www.oslofjorden.com\/badesteder\/vestfold\/furustrand.html", "timestamp": "2009\/06\/28 22:19:18+00" }, "geometry": { "type": "Point", "coordinates": [ 10.49222, 59.268385 ] } },
{ "type": "Feature", "properties": { "Name": "Furustrand, Langesund", "description": null, "timestamp": "2009\/09\/03 07:20:33+00" }, "geometry": { "type": "Point", "coordinates": [ 9.750917, 58.993825 ] } },
{ "type": "Feature", "properties": { "Name": "Furøya", "description": null, "timestamp": "2009\/09\/02 22:31:21+00" }, "geometry": { "type": "Point", "coordinates": [ 8.955703, 58.598671 ] } },
{ "type": "Feature", "properties": { "Name": "Fyllingen", "description": null, "timestamp": "2007\/06\/29 21:29:57+00" }, "geometry": { "type": "Point", "coordinates": [ 10.494413, 59.41743 ] } },
{ "type": "Feature", "properties": { "Name": "Fyllingen2", "description": null, "timestamp": "2007\/06\/29 21:30:50+00" }, "geometry": { "type": "Point", "coordinates": [ 10.497466, 59.415556 ] } },
{ "type": "Feature", "properties": { "Name": "Fynsletta parkering", "description": null, "timestamp": "2009\/08\/06 06:03:03+00" }, "geometry": { "type": "Point", "coordinates": [ 10.451589, 59.07823 ] } },
{ "type": "Feature", "properties": { "Name": "Fynstranda, Sandøsund", "description": "http:\/\/www.oslofjorden.com\/badesteder\/vestfold\/fynstranda_hvasser.html", "timestamp": "2009\/05\/09 07:37:27+00" }, "geometry": { "type": "Point", "coordinates": [ 10.452295, 59.077212 ] } },
{ "type": "Feature", "properties": { "Name": "Fyrsteilene fyr", "description": null, "timestamp": "2010\/04\/08 21:44:30+00" }, "geometry": { "type": "Point", "coordinates": [ 10.594243, 59.816793 ] } },
{ "type": "Feature", "properties": { "Name": "Færder Fyr", "description": null, "timestamp": "2009\/08\/04 20:23:09+00" }, "geometry": { "type": "Point", "coordinates": [ 10.524377, 59.026787 ] } },
{ "type": "Feature", "properties": { "Name": "Færgestadveien parkering", "description": null, "timestamp": "2014\/03\/22 09:40:19+00" }, "geometry": { "type": "Point", "coordinates": [ 10.60015, 59.664205 ] } },
{ "type": "Feature", "properties": { "Name": "Gamle Tomb Kirke", "description": null, "timestamp": "2012\/06\/03 07:59:20+00" }, "geometry": { "type": "Point", "coordinates": [ 10.809947, 59.322045 ] } },
{ "type": "Feature", "properties": { "Name": "Gamledammen, Drammen", "description": null, "timestamp": "2014\/06\/18 11:45:43+00" }, "geometry": { "type": "Point", "coordinates": [ 10.1199, 59.776517 ] } },
{ "type": "Feature", "properties": { "Name": "Gammelvik, Hurum", "description": "http:\/\/www.oslofjorden.com\/badesteder\/buskerud\/gammelvik_badeplass_hurum.html", "timestamp": "2014\/03\/08 19:50:23+00" }, "geometry": { "type": "Point", "coordinates": [ 10.600098, 59.560471 ] } },
{ "type": "Feature", "properties": { "Name": "Gangnes, Øgderen ???", "description": null, "timestamp": "2010\/03\/14 19:48:33+00" }, "geometry": { "type": "Point", "coordinates": [ 11.395826, 59.713483 ] } },
{ "type": "Feature", "properties": { "Name": "Gansrød parkering", "description": null, "timestamp": "2015\/06\/07 18:48:36+00" }, "geometry": { "type": "Point", "coordinates": [ 10.994911, 59.189658 ] } },
{ "type": "Feature", "properties": { "Name": "Gansvika, Øyeren", "description": null, "timestamp": "2009\/09\/14 21:20:30+00" }, "geometry": { "type": "Point", "coordinates": [ 11.216741, 59.86167 ] } },
{ "type": "Feature", "properties": { "Name": "Garviks Camping", "description": null, "timestamp": "2016\/08\/01 18:42:00+00" }, "geometry": { "type": "Point", "coordinates": [ 11.160151, 58.852707 ] } },
{ "type": "Feature", "properties": { "Name": "Gausen tunell", "description": null, "timestamp": "2011\/07\/10 07:50:26+00" }, "geometry": { "type": "Point", "coordinates": [ 10.314533, 59.484033 ] } },
{ "type": "Feature", "properties": { "Name": "Geitøya", "description": "http:\/\/www.oslofjorden.com\/uthavner\/ostfold\/geitoeya_uthavn_fredrikstad.html", "timestamp": "2014\/08\/02 10:23:27+00" }, "geometry": { "type": "Point", "coordinates": [ 10.802098, 59.191773 ] } },
{ "type": "Feature", "properties": { "Name": "Gierløffs vei", "description": null, "timestamp": "2009\/09\/06 22:01:48+00" }, "geometry": { "type": "Point", "coordinates": [ 9.413811, 58.866418 ] } },
{ "type": "Feature", "properties": { "Name": "Gilhusodden, Lier", "description": "http:\/\/www.oslofjorden.com\/badesteder\/buskerud\/gilhusodden_badeplass_lier.html", "timestamp": "2011\/07\/09 09:46:39+00" }, "geometry": { "type": "Point", "coordinates": [ 10.267239, 59.747386 ] } },
{ "type": "Feature", "properties": { "Name": "Gillundstranda, Stange", "description": null, "timestamp": "2017\/05\/13 23:18:12+00" }, "geometry": { "type": "Point", "coordinates": [ 11.104162, 60.711703 ] } },
{ "type": "Feature", "properties": { "Name": "Gjetholmsjøen badeplass, Stange", "description": null, "timestamp": "2017\/05\/14 10:42:00+00" }, "geometry": { "type": "Point", "coordinates": [ 11.457269, 60.723375 ] } },
{ "type": "Feature", "properties": { "Name": "Gjeving", "description": null, "timestamp": "2008\/09\/07 22:01:18+00" }, "geometry": { "type": "Point", "coordinates": [ 9.124482, 58.64573 ] } },
{ "type": "Feature", "properties": { "Name": "Gjeving Marina", "description": null, "timestamp": "2009\/04\/30 22:59:28+00" }, "geometry": { "type": "Point", "coordinates": [ 9.121598, 58.650432 ] } },
{ "type": "Feature", "properties": { "Name": "Gjøkvika, Søndre Sandøy", "description": null, "timestamp": "2016\/10\/16 10:17:56+00" }, "geometry": { "type": "Point", "coordinates": [ 11.103697, 59.016639 ] } },
{ "type": "Feature", "properties": { "Name": "Gjøva, Vestby", "description": "http:\/\/www.oslofjorden.com\/badesteder\/akershus\/gjoeva_badeplass_vestby.html", "timestamp": "2010\/06\/16 23:23:13+00" }, "geometry": { "type": "Point", "coordinates": [ 10.669699, 59.50264 ] } },
{ "type": "Feature", "properties": { "Name": "Glennestranda", "description": "Kun etter avtale", "timestamp": "2007\/06\/29 21:26:33+00" }, "geometry": { "type": "Point", "coordinates": [ 10.381651, 59.140477 ] } },
{ "type": "Feature", "properties": { "Name": "Glennestranda, Frogn", "description": null, "timestamp": "2013\/05\/19 07:47:58+00" }, "geometry": { "type": "Point", "coordinates": [ 10.713298, 59.763006 ] } },
{ "type": "Feature", "properties": { "Name": "Glommen Bunkersservice - Værste - bare diesel", "description": null, "timestamp": "2015\/05\/23 22:02:12+00" }, "geometry": { "type": "Point", "coordinates": [ 10.924423, 59.214295 ] } },
{ "type": "Feature", "properties": { "Name": "Glufsa", "description": "http:\/\/www.oslofjorden.com\/badesteder\/ostfold\/glufsa_badeplass_fredrikstad.html", "timestamp": "2012\/10\/14 09:44:56+00" }, "geometry": { "type": "Point", "coordinates": [ 10.88465, 59.176135 ] } },
{ "type": "Feature", "properties": { "Name": "Glæstadtjernet. Gjøvik", "description": null, "timestamp": "2017\/02\/05 16:11:49+00" }, "geometry": { "type": "Point", "coordinates": [ 10.515711, 60.838525 ] } },
{ "type": "Feature", "properties": { "Name": "Godalen, Stavanger", "description": null, "timestamp": "2016\/05\/19 16:53:03+00" }, "geometry": { "type": "Point", "coordinates": [ 5.756781, 58.953977 ] } },
{ "type": "Feature", "properties": { "Name": "Godvik, Bergen", "description": null, "timestamp": "2015\/12\/12 10:16:15+00" }, "geometry": { "type": "Point", "coordinates": [ 5.197048, 60.378799 ] } },
{ "type": "Feature", "properties": { "Name": "Goksjø, Sandefjord", "description": null, "timestamp": "2014\/11\/20 23:10:29+00" }, "geometry": { "type": "Point", "coordinates": [ 10.173083, 59.165119 ] } },
{ "type": "Feature", "properties": { "Name": "Gonsbukta, Larvik", "description": "http:\/\/www.oslofjorden.com\/badesteder\/vestfold\/gon_larvik.html", "timestamp": "2009\/07\/22 10:46:34+00" }, "geometry": { "type": "Point", "coordinates": [ 10.069937, 59.021449 ] } },
{ "type": "Feature", "properties": { "Name": "Granholmen", "description": "http:\/\/www.oslofjorden.com\/badesteder\/vestfold\/granholmen_badeplass_sandefjord.html", "timestamp": "2014\/10\/26 08:20:12+00" }, "geometry": { "type": "Point", "coordinates": [ 10.223808, 59.088174 ] } },
{ "type": "Feature", "properties": { "Name": "Grantopp, Steinsfjorden ??", "description": "???", "timestamp": "2010\/09\/12 16:20:57+00" }, "geometry": { "type": "Point", "coordinates": [ 10.335576, 60.129551 ] } },
{ "type": "Feature", "properties": { "Name": "Grebbestad", "description": "Rampe, Kran", "timestamp": "2008\/08\/10 19:23:52+00" }, "geometry": { "type": "Point", "coordinates": [ 11.25386, 58.691293 ] } },
{ "type": "Feature", "properties": { "Name": "Grebbestad bunkers", "description": null, "timestamp": "2014\/11\/14 22:12:55+00" }, "geometry": { "type": "Point", "coordinates": [ 11.252854, 58.690354 ] } },
{ "type": "Feature", "properties": { "Name": "Grebbestad gjestehavn", "description": null, "timestamp": "2014\/09\/15 19:45:35+00" }, "geometry": { "type": "Point", "coordinates": [ 11.25662, 58.687751 ] } },
{ "type": "Feature", "properties": { "Name": "Grefstadvika", "description": null, "timestamp": "2010\/05\/07 23:19:58+00" }, "geometry": { "type": "Point", "coordinates": [ 8.660558, 58.357107 ] } },
{ "type": "Feature", "properties": { "Name": "Gressholmen", "description": "http:\/\/www.oslofjorden.com\/badesteder\/oslo\/gressholmen_rambergoeya_badeplass_oslo.html", "timestamp": "2009\/05\/08 21:18:35+00" }, "geometry": { "type": "Point", "coordinates": [ 10.721246, 59.883898 ] } },
{ "type": "Feature", "properties": { "Name": "Gressvik fergeleie", "description": null, "timestamp": "2014\/04\/25 19:11:02+00" }, "geometry": { "type": "Point", "coordinates": [ 10.911279, 59.214722 ] } },
{ "type": "Feature", "properties": { "Name": "Grimestad  båtforening", "description": null, "timestamp": "2009\/08\/16 18:13:13+00" }, "geometry": { "type": "Point", "coordinates": [ 10.414754, 59.13704 ] } },
{ "type": "Feature", "properties": { "Name": "Grimestad badeplass", "description": "http:\/\/www.oslofjorden.com\/badesteder\/vestfold\/grimestad_tjoeme.html", "timestamp": "2009\/08\/16 18:13:58+00" }, "geometry": { "type": "Point", "coordinates": [ 10.415823, 59.134601 ] } },
{ "type": "Feature", "properties": { "Name": "Grimestad båtrampe", "description": null, "timestamp": "2008\/08\/10 19:51:50+00" }, "geometry": { "type": "Point", "coordinates": [ 10.41502, 59.13644 ] } },
{ "type": "Feature", "properties": { "Name": "Grimsrudbukta, Røyken", "description": null, "timestamp": "2014\/05\/11 19:10:25+00" }, "geometry": { "type": "Point", "coordinates": [ 10.429325, 59.685822 ] } },
{ "type": "Feature", "properties": { "Name": "Grimstad Motorbåtforening", "description": null, "timestamp": "2013\/08\/26 21:38:12+00" }, "geometry": { "type": "Point", "coordinates": [ 8.586829, 58.333304 ] } },
{ "type": "Feature", "properties": { "Name": "Grimsøy marine", "description": null, "timestamp": "2013\/06\/08 21:59:05+00" }, "geometry": { "type": "Point", "coordinates": [ 11.191046, 59.144478 ] } },
{ "type": "Feature", "properties": { "Name": "Grini krigsminnesmerke", "description": null, "timestamp": "2012\/07\/01 16:58:41+00" }, "geometry": { "type": "Point", "coordinates": [ 10.595456, 59.952608 ] } },
{ "type": "Feature", "properties": { "Name": "Groos frilutsområde", "description": null, "timestamp": "2010\/05\/08 22:34:50+00" }, "geometry": { "type": "Point", "coordinates": [ 8.582169, 58.326751 ] } },
{ "type": "Feature", "properties": { "Name": "Gropa, Drammen", "description": null, "timestamp": "2014\/06\/17 19:27:58+00" }, "geometry": { "type": "Point", "coordinates": [ 10.180974, 59.74745 ] } },
{ "type": "Feature", "properties": { "Name": "Groruddammen", "description": null, "timestamp": "2015\/01\/03 16:13:41+00" }, "geometry": { "type": "Point", "coordinates": [ 10.87546, 59.957141 ] } },
{ "type": "Feature", "properties": { "Name": "Grotlesanden, Bremanger", "description": null, "timestamp": "2017\/03\/25 20:07:38+00" }, "geometry": { "type": "Point", "coordinates": [ 4.898788, 61.842683 ] } },
{ "type": "Feature", "properties": { "Name": "Grubesand", "description": "http:\/\/www.oslofjorden.com\/badesteder\/vestfold\/grubesand_vesteroeya_sandefjord.html", "timestamp": "2009\/04\/28 19:36:17+00" }, "geometry": { "type": "Point", "coordinates": [ 10.278379, 59.072034 ] } },
{ "type": "Feature", "properties": { "Name": "Grubesand parkering", "description": null, "timestamp": "2009\/10\/29 23:09:25+00" }, "geometry": { "type": "Point", "coordinates": [ 10.277353, 59.072826 ] } },
{ "type": "Feature", "properties": { "Name": "Grunnvik", "description": "http:\/\/www.oslofjorden.com\/badesteder\/ostfold\/grundvik_badeplass_fredrikstad.html", "timestamp": "2015\/03\/16 21:42:58+00" }, "geometry": { "type": "Point", "coordinates": [ 10.755477, 59.235957 ] } },
{ "type": "Feature", "properties": { "Name": "Grønevika, Bergen", "description": null, "timestamp": "2015\/12\/12 10:29:19+00" }, "geometry": { "type": "Point", "coordinates": [ 5.273542, 60.255553 ] } },
{ "type": "Feature", "properties": { "Name": "Grønnbauen, Herføl", "description": null, "timestamp": "2009\/08\/02 22:46:11+00" }, "geometry": { "type": "Point", "coordinates": [ 11.042119, 58.991085 ] } },
{ "type": "Feature", "properties": { "Name": "Grønnbukt", "description": "http:\/\/www.oslofjorden.com\/badesteder\/ostfold\/groennbukt_badeplass_sponvika_halden.html", "timestamp": "2012\/10\/06 08:43:51+00" }, "geometry": { "type": "Point", "coordinates": [ 11.214276, 59.090506 ] } },
{ "type": "Feature", "properties": { "Name": "Grønnevig, Stavanger", "description": null, "timestamp": "2016\/05\/19 19:38:24+00" }, "geometry": { "type": "Point", "coordinates": [ 5.738675, 58.988186 ] } },
{ "type": "Feature", "properties": { "Name": "Grønnsundveien, Skiptvet", "description": null, "timestamp": "2012\/11\/13 22:59:13+00" }, "geometry": { "type": "Point", "coordinates": [ 11.212878, 59.515386 ] } },
{ "type": "Feature", "properties": { "Name": "Grønnvika", "description": null, "timestamp": "2009\/05\/22 21:49:13+00" }, "geometry": { "type": "Point", "coordinates": [ 8.353813, 58.22955 ] } },
{ "type": "Feature", "properties": { "Name": "Gullholmen Fyr", "description": null, "timestamp": "2010\/03\/14 22:51:17+00" }, "geometry": { "type": "Point", "coordinates": [ 10.57693, 59.435202 ] } },
{ "type": "Feature", "properties": { "Name": "Gulodden, Bærøy", "description": null, "timestamp": "2010\/07\/07 21:12:05+00" }, "geometry": { "type": "Point", "coordinates": [ 9.439384, 58.874503 ] } },
{ "type": "Feature", "properties": { "Name": "Gunnarsholmen, Kragerø", "description": null, "timestamp": "2010\/07\/07 21:22:14+00" }, "geometry": { "type": "Point", "coordinates": [ 9.411572, 58.86425 ] } },
{ "type": "Feature", "properties": { "Name": "Guslandutmarka parkering", "description": null, "timestamp": "2015\/05\/16 22:06:20+00" }, "geometry": { "type": "Point", "coordinates": [ 9.918951, 58.975778 ] } },
{ "type": "Feature", "properties": { "Name": "Guttormstangen", "description": null, "timestamp": "2017\/03\/11 18:48:03+00" }, "geometry": { "type": "Point", "coordinates": [ 10.843418, 59.080086 ] } },
{ "type": "Feature", "properties": { "Name": "Guttormsvauen badeplass", "description": "http:\/\/www.oslofjorden.com\/badesteder\/ostfold\/guttormsvauen_badeplass_hvaler.html", "timestamp": "2009\/08\/02 21:43:01+00" }, "geometry": { "type": "Point", "coordinates": [ 10.846847, 59.083731 ] } },
{ "type": "Feature", "properties": { "Name": "Guttormsvauen parkering", "description": null, "timestamp": "2009\/08\/16 19:20:44+00" }, "geometry": { "type": "Point", "coordinates": [ 10.856219, 59.091833 ] } },
{ "type": "Feature", "properties": { "Name": "Gyssestad båtforening", "description": "båtforening", "timestamp": "2010\/08\/08 22:10:15+00" }, "geometry": { "type": "Point", "coordinates": [ 10.509319, 59.878694 ] } },
{ "type": "Feature", "properties": { "Name": "Gårdmannsbråten parkering", "description": null, "timestamp": "2013\/06\/03 18:56:39+00" }, "geometry": { "type": "Point", "coordinates": [ 10.796068, 59.729249 ] } },
{ "type": "Feature", "properties": { "Name": "Gårdsmuseet og husmannsplassen Hallingsås", "description": null, "timestamp": "2012\/06\/03 08:02:31+00" }, "geometry": { "type": "Point", "coordinates": [ 10.81276, 59.318905 ] } },
{ "type": "Feature", "properties": { "Name": "Gåserumpa", "description": null, "timestamp": "2013\/07\/30 20:34:28+00" }, "geometry": { "type": "Point", "coordinates": [ 10.328264, 59.515986 ] } },
{ "type": "Feature", "properties": { "Name": "Gåsø", "description": "Mulig strand ??", "timestamp": "2009\/07\/22 11:25:11+00" }, "geometry": { "type": "Point", "coordinates": [ 10.34632, 59.20516 ] } },
{ "type": "Feature", "properties": { "Name": "Gåsøkalven", "description": null, "timestamp": "2009\/07\/22 11:25:42+00" }, "geometry": { "type": "Point", "coordinates": [ 10.347404, 59.207768 ] } },
{ "type": "Feature", "properties": { "Name": "Haga", "description": null, "timestamp": "2009\/10\/25 14:22:57+00" }, "geometry": { "type": "Point", "coordinates": [ 11.372494, 60.05468 ] } },
{ "type": "Feature", "properties": { "Name": "Hagaløkka", "description": "http:\/\/www.oslofjorden.com\/badesteder\/vestfold\/hagaloekka_badeplass_sandefjord.html", "timestamp": "2014\/09\/08 21:37:00+00" }, "geometry": { "type": "Point", "coordinates": [ 10.291003, 59.121364 ] } },
{ "type": "Feature", "properties": { "Name": "Hagasand, Sande", "description": "http:\/\/www.oslofjorden.com\/badesteder\/vestfold\/hagasand_badeplass_sande.html", "timestamp": "2009\/08\/03 13:38:57+00" }, "geometry": { "type": "Point", "coordinates": [ 10.3655, 59.530692 ] } },
{ "type": "Feature", "properties": { "Name": "Hagefjordbrygga", "description": null, "timestamp": "2015\/06\/09 21:19:37+00" }, "geometry": { "type": "Point", "coordinates": [ 9.025784, 58.584552 ] } },
{ "type": "Feature", "properties": { "Name": "Hagemann, Holmestrand", "description": "http:\/\/www.oslofjorden.com\/badesteder\/vestfold\/hagmann_badeplass_holmestrand.html", "timestamp": "2009\/09\/05 23:32:18+00" }, "geometry": { "type": "Point", "coordinates": [ 10.33092, 59.479766 ] } },
{ "type": "Feature", "properties": { "Name": "Halden Brygge, Fornebu", "description": "http:\/\/www.oslofjorden.com\/badesteder\/akershus\/halden_brygge_badeplass_fornebu.html", "timestamp": "2010\/08\/08 22:19:16+00" }, "geometry": { "type": "Point", "coordinates": [ 10.631916, 59.887406 ] } },
{ "type": "Feature", "properties": { "Name": "Halden gjestehavn", "description": null, "timestamp": "2010\/04\/17 11:01:36+00" }, "geometry": { "type": "Point", "coordinates": [ 11.386582, 59.118277 ] } },
{ "type": "Feature", "properties": { "Name": "Halden, Rampe", "description": null, "timestamp": "2009\/07\/07 19:19:24+00" }, "geometry": { "type": "Point", "coordinates": [ 11.379745, 59.118806 ] } },
{ "type": "Feature", "properties": { "Name": "Hallangspollen", "description": "WC", "timestamp": "2009\/06\/01 22:44:19+00" }, "geometry": { "type": "Point", "coordinates": [ 10.621915, 59.685703 ] } },
{ "type": "Feature", "properties": { "Name": "Hamresanden", "description": null, "timestamp": "2009\/05\/09 06:40:11+00" }, "geometry": { "type": "Point", "coordinates": [ 8.080547, 58.190505 ] } },
{ "type": "Feature", "properties": { "Name": "Hankø Fjordhotell", "description": null, "timestamp": "2013\/06\/09 08:24:57+00" }, "geometry": { "type": "Point", "coordinates": [ 10.776219, 59.207813 ] } },
{ "type": "Feature", "properties": { "Name": "Hankø Marina", "description": null, "timestamp": "2010\/04\/17 12:13:26+00" }, "geometry": { "type": "Point", "coordinates": [ 10.788617, 59.213605 ] } },
{ "type": "Feature", "properties": { "Name": "Hankøhavna", "description": null, "timestamp": "2013\/06\/09 08:28:16+00" }, "geometry": { "type": "Point", "coordinates": [ 10.770087, 59.197168 ] } },
{ "type": "Feature", "properties": { "Name": "Hansbakkfjæra, Trondheim", "description": null, "timestamp": "2016\/04\/02 18:25:33+00" }, "geometry": { "type": "Point", "coordinates": [ 10.544813, 63.430879 ] } },
{ "type": "Feature", "properties": { "Name": "Hanthosundet", "description": null, "timestamp": "2012\/07\/01 17:05:23+00" }, "geometry": { "type": "Point", "coordinates": [ 8.936993, 58.58726 ] } },
{ "type": "Feature", "properties": { "Name": "Haraldstangen", "description": null, "timestamp": "2012\/10\/24 21:43:05+00" }, "geometry": { "type": "Point", "coordinates": [ 10.464417, 59.516771 ] } },
{ "type": "Feature", "properties": { "Name": "Harasjøen badeplass, Stange", "description": null, "timestamp": "2017\/05\/14 10:37:33+00" }, "geometry": { "type": "Point", "coordinates": [ 11.413679, 60.6423 ] } },
{ "type": "Feature", "properties": { "Name": "Hartmanns Brygge", "description": "Nodeviga 3", "timestamp": "2009\/05\/05 10:20:49+00" }, "geometry": { "type": "Point", "coordinates": [ 7.998063, 58.141629 ] } },
{ "type": "Feature", "properties": { "Name": "Hasseltangen", "description": null, "timestamp": "2010\/05\/08 22:24:02+00" }, "geometry": { "type": "Point", "coordinates": [ 8.726137, 58.393893 ] } },
{ "type": "Feature", "properties": { "Name": "Hasslebukten", "description": null, "timestamp": "2015\/02\/09 18:51:50+00" }, "geometry": { "type": "Point", "coordinates": [ 11.141709, 58.8709 ] } },
{ "type": "Feature", "properties": { "Name": "Hauga parkering", "description": "Liten parkering for brukere av kyststien.", "timestamp": "2013\/09\/21 08:51:00+00" }, "geometry": { "type": "Point", "coordinates": [ 10.803038, 59.326296 ] } },
{ "type": "Feature", "properties": { "Name": "Haugerstranda, Jevnaker", "description": null, "timestamp": "2010\/09\/12 11:39:19+00" }, "geometry": { "type": "Point", "coordinates": [ 10.406617, 60.243517 ] } },
{ "type": "Feature", "properties": { "Name": "Haugnes ?", "description": null, "timestamp": "2012\/11\/04 20:30:53+00" }, "geometry": { "type": "Point", "coordinates": [ 11.050796, 60.376042 ] } },
{ "type": "Feature", "properties": { "Name": "Hauslandsanden, Strand Hotell Fevik", "description": null, "timestamp": "2009\/08\/03 12:54:11+00" }, "geometry": { "type": "Point", "coordinates": [ 8.668108, 58.371372 ] } },
{ "type": "Feature", "properties": { "Name": "Haviksanden", "description": null, "timestamp": "2010\/04\/25 11:57:23+00" }, "geometry": { "type": "Point", "coordinates": [ 6.727741, 58.064958 ] } },
{ "type": "Feature", "properties": { "Name": "Havna gjestehavn, Tjøme", "description": "http:\/\/www.oslofjorden.com\/gjestehavn_marina\/havna_gjestehavn_tjoeme_vestfold.html", "timestamp": "2014\/09\/15 20:02:34+00" }, "geometry": { "type": "Point", "coordinates": [ 10.417598, 59.08551 ] } },
{ "type": "Feature", "properties": { "Name": "Havna, Tjøme", "description": "http:\/\/www.oslofjorden.com\/badesteder\/vestfold\/havna_tjoeme.html", "timestamp": "2014\/09\/15 20:02:49+00" }, "geometry": { "type": "Point", "coordinates": [ 10.418822, 59.08393 ] } },
{ "type": "Feature", "properties": { "Name": "Havnebakken, Årø", "description": null, "timestamp": "2010\/08\/03 19:13:29+00" }, "geometry": { "type": "Point", "coordinates": [ 10.326108, 59.140572 ] } },
{ "type": "Feature", "properties": { "Name": "Havstad, Arendal", "description": null, "timestamp": "2009\/09\/19 23:55:31+00" }, "geometry": { "type": "Point", "coordinates": [ 8.791243, 58.466669 ] } },
{ "type": "Feature", "properties": { "Name": "Heggholmen fyr", "description": null, "timestamp": "2010\/04\/08 21:43:23+00" }, "geometry": { "type": "Point", "coordinates": [ 10.71375, 59.885383 ] } },
{ "type": "Feature", "properties": { "Name": "Heistadstranda", "description": null, "timestamp": "2009\/05\/26 17:16:01+00" }, "geometry": { "type": "Point", "coordinates": [ 9.690542, 59.075525 ] } },
{ "type": "Feature", "properties": { "Name": "Heistadtangen Båthavn", "description": null, "timestamp": "2010\/08\/05 17:49:45+00" }, "geometry": { "type": "Point", "coordinates": [ 9.691958, 59.075958 ] } },
{ "type": "Feature", "properties": { "Name": "Hekshus Camping", "description": null, "timestamp": "2009\/04\/24 10:23:42+00" }, "geometry": { "type": "Point", "coordinates": [ 10.851892, 60.72246 ] } },
{ "type": "Feature", "properties": { "Name": "Helgeroa gjestehavn", "description": "http:\/\/www.oslofjorden.com\/gjestehavn_marina\/helgeroa_gjestehavn_larvik_vestfold.html", "timestamp": "2007\/06\/29 20:22:14+00" }, "geometry": { "type": "Point", "coordinates": [ 9.858285, 58.994045 ] } },
{ "type": "Feature", "properties": { "Name": "Hella", "description": null, "timestamp": "2009\/09\/20 22:05:45+00" }, "geometry": { "type": "Point", "coordinates": [ 10.385367, 59.232208 ] } },
{ "type": "Feature", "properties": { "Name": "Hella, Svelvik", "description": null, "timestamp": "2012\/11\/06 18:52:16+00" }, "geometry": { "type": "Point", "coordinates": [ 10.386524, 59.65457 ] } },
{ "type": "Feature", "properties": { "Name": "Hellandodden", "description": null, "timestamp": "2014\/09\/06 12:18:53+00" }, "geometry": { "type": "Point", "coordinates": [ 10.297027, 59.138346 ] } },
{ "type": "Feature", "properties": { "Name": "Helleberget, Jeløy", "description": "http:\/\/www.oslofjorden.com\/badesteder\/ostfold\/signalodden_helleberget_badeplass_moss.html", "timestamp": "2013\/04\/30 22:16:32+00" }, "geometry": { "type": "Point", "coordinates": [ 10.626231, 59.482732 ] } },
{ "type": "Feature", "properties": { "Name": "Helleskilen, Fredrikstad", "description": null, "timestamp": "2016\/05\/22 11:05:34+00" }, "geometry": { "type": "Point", "coordinates": [ 10.828744, 59.172806 ] } },
{ "type": "Feature", "properties": { "Name": "Hellestøstranden, Sola", "description": null, "timestamp": "2016\/05\/07 19:22:30+00" }, "geometry": { "type": "Point", "coordinates": [ 5.563116, 58.843074 ] } },